,price,type,address,postcode,number_bedrooms,lat,lng,formatted_address
0,197750.0,Flat,"415 Wick Lane,Fish Island, London,E3 2JG",E3,3.0,51.5364415,-0.0228981,"415 Wick Ln, Fish Island, London E3 2JG, UK"
1,250000.0,Apartment,"George Lane, Lewisham, London, SE13",SE13,1.0,51.450535,-0.0114059,"George Ln, London SE13, UK"
2,250000.0,Flat,"Chiltern Road, London E3",E3,2.0,51.5223872,-0.0206875,"Chiltern Rd, London E3, UK"
3,250000.0,Flat,"Nightingale Way, Beckton, London, E6",E6,1.0,51.5184688,0.0513297,"Nightingale Way, London E6, UK"
4,250000.0,Studio flat,"Lawrie Park Road, London, SE26",SE26,0.0,51.4232779,-0.0580582,"Lawrie Park Rd, London SE26, UK"
5,250000.0,Apartment,"Andridge Court, 2A Church Lane, London, SW19",SW19,1.0,51.4131873,-0.2047367,"Andridge Court, 2A Church Ln, London SW19 3JW, UK"
6,250000.0,Apartment,"Longley Road, London, SW17",SW17,1.0,51.4211743,-0.1670304,"Longley Rd, London SW17, UK"
7,250000.0,Maisonette,"Veronica Gardens, London, SW16",SW16,1.0,51.4113017,-0.1435115,"Veronica Gardens, London SW16, UK"
8,250000.0,Flat,"Plough Way, Surrey Quays, SE16",SE16,1.0,51.4927473,-0.038675,"Plough Way, London SE16, UK"
9,250000.0,Apartment,"High Road Leytonstone, London, E11",E11,1.0,51.5625643,0.0092778,"High Rd Leytonstone, London E11, UK"
10,250000.0,Flat,"Parkham Street, SW11",SW11,1.0,51.4750003,-0.1724464,"Parkham St, London SW11, UK"
11,250000.0,Apartment,"Marathon Way, Thamesmead West, SE28 0JH",SE28,2.0,51.4997847,0.0968211,"Marathon Way, London SE28 0JH, UK"
12,250000.0,Bungalow,"Highfield Avenue, Brent Cross, London, NW11",NW11,1.0,51.5761664,-0.2141911,"Highfield Ave, Brent Cross, London, UK"
13,250000.0,House,"The Dove Pier, Hammersmith, W6",W6,1.0,51.4899765,-0.2344658999999999,"The Dove Pier, Lower Mall, London W6 9DJ, UK"
14,250000.0,Flat,"Wandsworth High Street, London, SW18",SW18,1.0,51.4570933,-0.1941536,"Wandsworth High St, London SW18, UK"
15,250000.0,Flat,"Armoury Road, Deptford, London, SE8",SE8,1.0,51.4672581,-0.0161527,"Armoury Rd, London SE8, UK"
16,157500.0,Apartment,"Flat 12 Spinney Court, Earlham Grove, London, E7",E7,3.0,51.5484539,0.0230617,"Earlham Grove, London E7, UK"
17,250000.0,Flat,"Battersea Park Road, Battersea, London, SW8",SW8,2.0,51.4781672,-0.1450091,"Battersea Park Rd, London SW8, UK"
18,250000.0,Flat,"Commonwealth Way, London, SE2",SE2,2.0,51.4855282,0.1158085,"Commonwealth Way, London SE2, UK"
19,250000.0,Flat,"Boundary Road, London, E13",E13,2.0,51.527322,0.0387644,"Boundary Rd, London E13, UK"
20,250000.0,Flat,"London Road, Norbury, London, SW16",SW16,1.0,51.407413,-0.1213266,"London Rd, Norbury, London, UK"
21,250000.0,Flat,"Deals Gateway, Lewisham, London, SE13",SE13,1.0,51.4726394,-0.020867,"Deals Gateway, London, UK"
22,250000.0,Flat,Stanstead Road London SE23,SE23,1.0,51.442078,-0.0402933,"Stanstead Rd, London SE23, UK"
23,250000.0,Flat,"Stocksfield Road, Walthamstow, London, E17",E17,1.0,51.5881303,-0.002815,"Stocksfield Rd, London E17, UK"
24,250000.0,Apartment,"Rawsthorne Close, London, E16",E16,1.0,51.5020173,0.0536656,"Rawsthorne Cl, London E16, UK"
25,250000.0,Flat,"Cassland Road, Hackney, London, E9",E9,1.0,51.5434479,-0.0416567,"Cassland Rd, London E9, UK"
26,250000.0,Flat,"Willesden Lane, London, NW2",NW2,1.0,51.545574,-0.2149149,"Willesden Ln, London NW2, UK"
27,250000.0,Bungalow,"82 Cemetery Road, Forest Gate, E7 9DG",E7,1.0,51.5523015,0.0172458,"82 Cemetery Rd, London E7 9BW, UK"
28,250000.0,Flat,"Ryecroft Street, Fulham, London, SW6",SW6,1.0,51.4742251,-0.1932094,"Ryecroft St, London SW6, UK"
29,250000.0,Apartment,"City Road, London, EC1V",EC1V,1.0,51.5293692,-0.0960137,"City Rd, London EC1V, UK"
30,250000.0,Flat,"Oakdale Road, Forest Gate, London E7 8JU",E7,1.0,51.5409159,0.0325604,"Oakdale Rd, London E7 8JU, UK"
31,250000.0,Flat,"2A Ryecroft Street, Fulham, London, ., SW6 3TT",SW6,1.0,51.47434029999999,-0.1923247,"2A Ryecroft St, London SW6 3TT, UK"
32,250000.0,Apartment,"Tenterden Road, Tottenham, N17",N17,1.0,51.6036754,-0.0727246,"Tenterden Rd, London N17, UK"
33,250000.0,Flat,"Whitburn Road, Lewisham, London, SE13",SE13,2.0,51.4577469,-0.014734,"Whitburn Rd, London SE13, UK"
34,250000.0,Flat,"Harrier Way, London, E6",E6,1.0,51.5175531,0.0562985,"Harrier Way, London E6, UK"
35,250000.0,Flat,Beckenham Hill Road London SE6,SE6,1.0,51.4239371,-0.0147063,"Beckenham Hill Rd, London SE6, UK"
36,250000.0,Studio flat,"Dryden Court, Renfrew Road, SE11",SE11,0.0,51.4920893,-0.1069304,"Dryden Court, Renfrew Rd, London SE11 4NH, UK"
37,250000.0,Flat,"Durrington Tower, Wandsworth Road, London, SW8",SW8,2.0,51.4708583,-0.140538,"Nine Elms, London SW8 3LE, UK"
38,250000.0,Flat,Honley Road London SE6,SE6,1.0,51.4473968,-0.015228,"Honley Rd, London SE6, UK"
39,250000.0,Flat,"Belson Road, London, SE18",SE18,2.0,51.4909788,0.0551758,"Belson Rd, London SE18, UK"
40,250000.0,Apartment,"Deals Gateway, London, SE13 7QQ",SE13,1.0,51.4719122,-0.0203231,"London SE13 7QQ, UK"
41,250000.0,Studio flat,"Boulevard Drive, London, NW9",NW9,0.0,51.5959015,-0.2413967,"Boulevard Dr, Edgware, London NW9, UK"
42,250000.0,Flat,"Fred Wigg Tower, Montague Road, London, E11",E11,3.0,51.5614421,0.014041,"Bushwood, London E11 3EP, UK"
43,250000.0,Apartment,"Deals Gateway, London, SE13 7QE",SE13,1.0,51.47232529999999,-0.0213563,"London SE13 7QE, UK"
44,250000.0,Apartment,"Herbert Road, Plumstead, SE18",SE18,1.0,51.4783667,0.0669328,"Herbert Rd, London SE18, UK"
45,250000.0,Flat,"Fred Wigg Tower, Montague Road, London, E11",E11,3.0,51.5614421,0.014041,"Bushwood, London E11 3EP, UK"
46,250000.0,Apartment,"Cambalt Road, Putney, SW15",SW15,1.0,51.4586285,-0.2202358,"Cambalt Rd, London SW15, UK"
47,250000.0,Studio flat,"Constantine House, Boulevard Drive, NW9",NW9,0.0,51.5957033,-0.2409546,"Boulevard Dr, London NW9 5XD, UK"
48,250000.0,Flat,"Swallow Street, E6, Beckton, London, E6",E6,1.0,51.5168036,0.0519255,"Swallow St, London E6, UK"
49,250000.0,Flat,"51a London Road, London, SW17 9JR",SW17,1.0,51.4188746,-0.16179,"51A London Rd, London SW17 9JR, UK"
50,250000.0,Maisonette,"Wearside Road, London, SE13",SE13,1.0,51.4574822,-0.016167,"Wearside Rd, London SE13, UK"
51,250000.0,Studio flat,"John Silkin Lane, London, SE8",SE8,0.0,51.4889859,-0.0437479,"John Silkin Ln, London SE8, UK"
52,250000.0,Flat,"Lewisham Way,  New Cross, SE14",SE14,1.0,51.4718641,-0.0307678,"Lewisham Way, London SE14, UK"
53,250000.0,Apartment,"Hermitage Lane, London, SE25",SE25,1.0,51.386302,-0.073752,"Hermitage Ln, London CR0, UK"
54,250000.0,Flat,"Burford Wharf Apartments, 3 Cam Road, Stratford, London, E15",E15,1.0,51.5369087,-0.0012583,"Burford Wharf Apts, 3 Cam Rd, London E15 2SQ, UK"
55,250000.0,Apartment,"Portland Road, South Norwood, London, SE25",SE25,1.0,51.3955062,-0.0680421,"Portland Rd, London SE25, UK"
56,250000.0,Flat,"Whitburn Road, Ladywell, London, SE13",SE13,2.0,51.4577469,-0.014734,"Whitburn Rd, London SE13, UK"
57,250000.0,Flat,West Park London SE9,SE9,1.0,51.4383631,0.0459935,"West Park, London SE9, UK"
58,250000.0,Maisonette,"Veronica Gardens, London, SW16",SW16,1.0,51.4113017,-0.1435115,"Veronica Gardens, London SW16, UK"
59,250000.0,Studio flat,"27 Oxford Road North, London, W4",W4,0.0,51.4898227,-0.2775855,"27 Oxford Rd N, Chiswick, London W4 4DH, UK"
60,250000.0,Studio flat,"The Grove, Streatham, London, SW16",SW16,0.0,51.4745731,-0.1530396,"279 Battersea Park Rd, London SW11 4NE, UK"
61,250000.0,Flat,"Deals Gateway, Deptford, London, SE13",SE13,1.0,51.4726394,-0.020867,"Deals Gateway, London, UK"
62,165000.0,Flat,"Brownhill Road, London, ., SE6 1AG",SE6,1.0,51.4451152,-0.0022958,"Brownhill Rd, London SE6 1AG, UK"
63,250000.0,Flat,Old Kent Road Peckham SE15,SE15,1.0,51.4832061,-0.0644858,"Old Kent Rd, London SE15, UK"
64,250000.0,House,"Greenland Dock, Surrey Quays SE16",SE16,2.0,51.49505139999999,-0.0361991,"Swedish Quay, London SE16 7UF, UK"
65,250000.0,Studio flat,"Clementine Close, London, W13",W13,0.0,51.5038894,-0.3223455,"Clementine Cl, London W13, UK"
66,250000.0,Studio flat,"Longley House, Tufnell Park Road N19",N19,0.0,51.55711590000001,-0.1371758,"Longley House, 242 Tufnell Park Rd, London N19 5HB, UK"
67,250000.0,Flat,Brownhill Road London SE6,SE6,1.0,51.4450808,-0.0074361,"Brownhill Rd, London SE6, UK"
68,250000.0,End of terrace house,"59 Wolsey Grove, Edgware, Middlesex, HA8 0PN",HA8,2.0,51.6084385,-0.2549894,"59 Wolsey Grove, Edgware HA8 0PN, UK"
69,250000.0,Apartment,"Lincoln Close, London, SE25",SE25,2.0,51.3876483,-0.0687681,"Lincoln Cl, London SE25 5ET, UK"
70,250000.0,Apartment,"Hindon Court, 104 Wilton Road, London, SW1V",SW1V,1.0,51.4931259,-0.1412436,"Flats 1-73, Wilton Rd, Pimlico, London SW1P 1DU, UK"
71,250000.0,Apartment,"Osborn House, Osborn Terrace, Blackheath, London, SE3",SE3,1.0,51.4576787,0.0119513,"Osborn House, 40 Osborn Terrace, Blackheath, London SE3 9GB, UK"
72,250000.0,Studio apartment,"Sienna Alto, Lewisham, SE13",SE13,0.0,51.4638867,-0.01423,"78 Cornmill Ln, London SE13 7DJ, UK"
73,250000.0,Maisonette,"Whitehorse Lane, London, SE25",SE25,1.0,51.4000786,-0.0854374,"Whitehorse Ln, London SE25, UK"
74,250000.0,Studio flat,"Hadyn Park Road, Shepherd's Bush, London, W12",W12,0.0,51.5039345,-0.2415096,"Hadyn Park Rd, London W12, UK"
75,250000.0,Apartment,"Swallow Street, London, E6 5JX",E6,1.0,51.5173599,0.0519945,"Swallow St, London E6 5JX, UK"
76,250000.0,Flat,"Barking Road, London, E6",E6,2.0,51.5326924,0.0521477,"Barking Rd, London E6, UK"
77,250000.0,Flat,"Essex Road South, London, E11",E11,1.0,51.5725317,0.0005394,"Essex Rd S, London E11, UK"
78,250000.0,Studio flat,"Courthill Road, London, SE13",SE13,0.0,51.4564359,-0.0098905,"Courthill Rd, London SE13, UK"
79,250000.0,Apartment,"Nightingale Way, London, E6 5JR",E6,1.0,51.5184064,0.052076,"Nightingale Way, London E6 5JR, UK"
80,250000.0,Flat,"Deals Gateway, Deptford, London, SE13",SE13,1.0,51.4726394,-0.020867,"Deals Gateway, London, UK"
81,250000.0,Flat,Pelican Estate Peckham SE15,SE15,2.0,51.4740565,-0.0771945,"The Peckham Pelican, 92 Peckham Rd, London SE15 5PY, UK"
82,250000.0,Apartment,"John Williams Close, London, SE14",SE14,1.0,51.4808765,-0.0477473,"John Williams Cl, London SE14, UK"
83,250000.0,Studio flat,"London, W7",W7,0.0,51.5119096,-0.3324815,"London W7, UK"
84,250000.0,Flat,"Dagnall Park, London, SE25",SE25,1.0,51.3914296,-0.0896861,"Dagnall Park, London SE25, UK"
85,250000.0,Flat,Whitburn Road Lewisham SE13,SE13,2.0,51.4577469,-0.014734,"Whitburn Rd, London SE13, UK"
86,250000.0,Flat,"Bentley Court (Lewisham), Lewisham, SE13 7US",SE13,2.0,51.45799090000001,-0.0139488,"Bentley Court, Whitburn Rd, London SE13 7US, UK"
87,250000.0,Flat,"Halley Road, Manor Park, London, E12",E12,1.0,51.5460638,0.0453971,"Halley Rd, London, UK"
88,250000.0,Flat,"Ullswater Court, South Woodford, E18 2BD",E18,1.0,51.5927199,0.0253169,"Ullswater Court, 1 Glebelands Ave, London E18 2BD, UK"
89,250000.0,House,"St. Katharine Docks, Wapping, E1W",E1W,2.0,51.5083845,-0.071709,"St Katherine Dock, London E1W, UK"
90,250000.0,Apartment,"Wrights Road, London, SE25",SE25,1.0,51.4025367,-0.0845374,"Wrights Rd, London SE25, UK"
91,250000.0,Flat,"London Road, Tooting, London, SW17",SW17,1.0,51.41891,-0.1620177,"London Rd, London SW17, UK"
92,250000.0,Flat,"Gascoigne Close, Tottenham, N17",N17,1.0,51.6012442,-0.0677996,"Gascoigne Cl, London N17, UK"
93,250000.0,Flat,"Marischal Road, Lewisham, London, SE13",SE13,2.0,51.4620411,-0.006376,"Marischal Rd, London SE13, UK"
94,250000.0,Flat,Dartmouth Road London SE23,SE23,1.0,51.4351887,-0.0564694,"Dartmouth Rd, London SE23, UK"
95,250000.0,Flat,"Flanders Court, Luther King Close, Walthamstow, London, E17",E17,1.0,51.5746338,-0.0319859,"Flanders Court, 1 Luther King Cl, London E17 8RS, UK"
96,250000.0,Flat,"Chamberlain Place, Walthamstow, London, E17",E17,1.0,51.5906988,-0.0339848,"Chamberlain Pl, London E17, UK"
97,250000.0,Flat,"Northwood Road,  Thornton Heath,  Surrey, CR7 8HU",CR7,1.0,51.4075082,-0.1050375,"Northwood Rd, Thornton Heath CR7 8HU, UK"
98,250000.0,Flat,"Waterview House, Carr Street, London, E14",E14,1.0,51.5178415,-0.0354714,"32 Carr St, London E14 7SX, UK"
99,250000.0,Flat,"Lockwood Place, Highams Park, London, E4",E4,1.0,51.608407,-0.0161873,"Lockwood Pl, London E4, UK"
100,250000.0,Flat,"Stanbrook Road, London, SE2",SE2,2.0,51.4975131,0.1133086,"Stanbrook Rd, London SE2, UK"
101,250000.0,Flat,"The Woodlands, London, SE19",SE19,2.0,51.4159946,-0.0984983,"The Woodlands, London SE19, UK"
102,250000.0,House,"Limehouse Marina, Goodhart Place, London, E14",E14,2.0,51.5101908,-0.0374569,"Goodhart Pl, London E14, UK"
103,250000.0,Studio apartment,"Barking Road, London, E16",E16,0.0,51.521196,0.020185,"Barking Rd, London E16, UK"
104,250000.0,Flat,"George Lane, SE13",SE13,1.0,51.450535,-0.0114059,"George Ln, London SE13, UK"
105,250000.0,Flat,Samuel Street London SE18,SE18,1.0,51.4906401,0.0515315,"Samuel St, London SE18, UK"
106,250000.0,Flat,"East Surrey Grove, Peckham, London, SE15",SE15,1.0,51.4776829,-0.0756549,"E Surrey Grove, London SE15, UK"
107,250000.0,House,"Poplar Dock Marina, Boardwalk Place, London, E14",E14,2.0,51.5059413,-0.0102067,"Boardwalk Pl, London E14, UK"
108,250000.0,Apartment,"Adler Court, Bream Close, London, N17",N17,1.0,51.586914,-0.0538101,"Alder Court, Bream Cl, London N17 9BS, UK"
109,165000.0,Flat,"Brownhill Road, London, ., SE6 1AG",SE6,1.0,51.4451152,-0.0022958,"Brownhill Rd, London SE6 1AG, UK"
110,250000.0,Studio flat,"Lothian Road, London SW9",SW9,0.0,51.4766057,-0.1025235,"Lothian Rd, Vassal, London SW9, UK"
111,250000.0,Flat,"5a Reginald Road, London, E7 9HS",E7,2.0,51.5420564,0.0184562,"5A Reginald Rd, London E7 9HS, UK"
112,250000.0,Flat,"Reginald Road, Stratford, London, E7",E7,2.0,51.5421695,0.0183957,"Reginald Rd, London E7, UK"
113,250000.0,Property,"Lychgate Court, 34 Friern Park, North Finchley, N12",N12,2.0,51.61552649999999,-0.1737249,"Lychgate Court, 34 Friern Park, London N12 9UL, UK"
114,250000.0,Apartment,"Nightingale Way, London, E6",E6,1.0,51.5184688,0.0513297,"Nightingale Way, London E6, UK"
115,250000.0,Studio flat,"Elwood Road, Highbury, N5",N5,0.0,51.5586834,-0.1001319,"Elwood St, London N5, UK"
116,250000.0,Flat,"Harrier Way, London, E6",E6,1.0,51.5175531,0.0562985,"Harrier Way, London E6, UK"
117,250000.0,Apartment,"Sylvan Road, London, SE19",SE19,1.0,51.4108097,-0.0780115,"Sylvan Rd, London SE19, UK"
118,250000.0,Apartment,"Grange Road, London, SE25",SE25,1.0,51.495391,-0.0775138,"Grange Rd, London SE1, UK"
119,250000.0,Apartment,"Durham Road, West Wimbledon, SW20, SW20",SW20,1.0,51.412607,-0.2335562,"Durham Rd, West Wimbledon, London SW20, UK"
120,250000.0,Apartment,"Abbott Road, London, E14",E14,1.0,51.5148563,-0.0048373,"Abbott Rd, London E14, UK"
121,250000.0,Flat,"Bruce Grove, London, N17",N17,1.0,51.5960038,-0.0720561,"Bruce Grove, London N17, UK"
122,250000.0,Flat,"Chamberlain Place, London, E17",E17,1.0,51.5906988,-0.0339848,"Chamberlain Pl, London E17, UK"
123,250000.0,Studio flat,"Carlyle Road, London, W5 ",W5,0.0,51.4946853,-0.3088728,"Carlyle Rd, London W5, UK"
124,250000.0,Flat,"Westdown Road, Catford, London, SE6",SE6,1.0,51.4455239,-0.0265682,"Westdown Rd, London SE6, UK"
125,240000.0,Duplex,Silvertown WayLondonE16 1ED,E16,3.0,51.5144975,0.0088344,"Silvertown Way, London E16 1ED, UK"
126,250000.0,Apartment,"Fairbairn Hall, 310 Barking Road, London, E13",E13,1.0,51.5212861,0.0207294,"Fairbairn Hall, 310 Barking Rd, London E13 8HL, UK"
127,250000.0,Flat,"BIRNBECK COURT, FINCHLEY ROAD, London, NW11",NW11,1.0,51.58513989999999,-0.1994515,"Birnbeck Court, 850 Finchley Rd, London NW11 6BB, UK"
128,250000.0,Flat,"Thursley House, Holmewood Gardens, Brixton, London, SW2 3RX",SW2,1.0,51.4478354,-0.122248,"Holmewood Gardens, Thursley House, Holmewood Gardens, Brixton Hill, London SW2 3RX, UK"
129,250000.0,Studio flat,"Abbeyfields Close, London, NW10 7EJ",NW10,0.0,51.5334023,-0.2828373,"Abbeyfields Cl, London NW10 7EJ, UK"
130,250000.0,Apartment,"Deals Gateway, London, SE13 7QG",SE13,1.0,51.4723693,-0.020764,"Deals Gateway, London SE13 7QG, UK"
131,250000.0,Flat,"Harrier Way, Beckton, London, E6",E6,1.0,51.5175531,0.0562985,"Harrier Way, London E6, UK"
132,250000.0,Flat,Cooks Road London SE17,SE17,1.0,51.4830676,-0.1026837,"Cooks Rd, London SE17, UK"
133,250000.0,Flat,"Honley Road, Catford, London, SE6",SE6,1.0,51.4473884,-0.0155412,"Honley Rd, London SE6, UK"
134,250000.0,Flat,"Chamberlain Place, Walthamstow, London, E17",E17,1.0,51.5906988,-0.0339848,"Chamberlain Pl, London E17, UK"
135,250000.0,Flat,"Lewisham Way, London, SE14",SE14,1.0,51.4718641,-0.0307678,"Lewisham Way, London SE14, UK"
136,250000.0,Flat,"4 Ascalon Court, 75 Upper Tulse Hill, London, SW2 2RL",SW2,1.0,51.44708,-0.1188308,"Ascalon Court, 75 Upper Tulse Hill, London SW2 2RL, UK"
137,250000.0,Flat,"Markhouse Road, London, E17 8BG",E17,1.0,51.5764141,-0.0298635,"Markhouse Rd, London E17 8BG, UK"
138,250000.0,Flat,"Upper Tulse Hill, Tulse Hill, London, SW2",SW2,1.0,51.4462848,-0.1186699,"Upper Tulse Hill, London SW2, UK"
139,250000.0,Studio flat,"Raul Road, London, SE15",SE15,0.0,51.4716361,-0.0667099,"Raul Rd, London SE15, UK"
140,250000.0,Flat,Redcar Street Camberwell SE5,SE5,2.0,51.4774867,-0.0985681,"Redcar St, London SE5, UK"
141,250000.0,Studio flat,"Plough Lane,London,SW19 8AR",SW19,0.0,51.427745,-0.19011,"Plough Ln, London SW19 8AR, UK"
142,250000.0,Flat,Cumberland Place London SE6,SE6,1.0,51.4395026,0.0103201,"Cumberland Pl, London SE6, UK"
143,249950.0,Maisonette,"Anthony Road, London, SE25",SE25,1.0,51.3877544,-0.0724681,"Anthony Rd, London SE25, UK"
144,249950.0,Studio flat,"Wheatley Close, Hendon, NW4",NW4,0.0,51.5975298,-0.2350598,"Wheatley Cl, London NW4, UK"
145,249950.0,Studio flat,"Tufnell Park Road, N19",N19,0.0,51.5578396,-0.1272349,"Tufnell Park Rd, London N19, UK"
146,249750.0,Flat,"Bowen Drive, Charlton,London,SE7 7QS",SE7,1.0,51.4853604,0.0241911,"Bowen Dr, Victoria Way, London SE7 7QS, UK"
147,249750.0,Flat,"Bowen Drive, Charlton,London,SE7 7QS",SE7,1.0,51.4853604,0.0241911,"Bowen Dr, Victoria Way, London SE7 7QS, UK"
148,249000.0,Apartment,"Hardcastle Close, Croydon, CR0",CR0,2.0,51.3885855,-0.0747828,"Hardcastle Cl, Croydon CR0, UK"
149,247500.0,Apartment,"Tandem, Bow, E3",E3,2.0,51.5281483,-0.0205416,"London E3, UK"
150,245000.0,House,"Chelsea, London, SW10",SW10,2.0,51.48071340000001,-0.1789965,"London SW10, UK"
151,146250.0,Apartment,"Marsh Wall,London,E14 9SH",E14,1.0,51.5001988,-0.0163933,"Marsh Wall, London E14 9SH, UK"
152,245000.0,Apartment,"Bromley High Street, London, E3",E3,2.0,51.5278917,-0.0157624,"Bromley High St., London E3, UK"
153,245000.0,Flat,"Middle Park Avenue, Mottingham, London, SE9",SE9,1.0,51.4452821,0.0400749,"Middle Park Ave, London SE9, UK"
154,245000.0,Flat,"Lansdowne Road, London, UK, N17 9XH",N17,1.0,51.5989934,-0.0637901,"Lansdowne Rd, London N17 9XH, UK"
155,245000.0,Flat,"Cherry Blossom Close, Palmers Green, London N13",N13,1.0,51.6149598,-0.0965019,"Cherry Blossom Cl, London N13, UK"
156,245000.0,Flat,"Chadwick House, 1 Latchmere Street, London, SW11",SW11,2.0,51.4716172,-0.1639999,"1 Latchmere St, London SW11 5JR, UK"
157,245000.0,Maisonette,"Oak Tree Dell, Kingsbury, London, NW9",NW9,1.0,51.5843693,-0.2615502,"Oak Tree Dell, Edgware, London NW9, UK"
158,245000.0,House,"Goodhart Place, London, E14",E14,1.0,51.5101908,-0.0374569,"Goodhart Pl, London E14, UK"
159,245000.0,Apartment,"Boston Road, Hanwell, W7",W7,1.0,51.5037246,-0.3329234,"Boston Rd, London W7, UK"
160,245000.0,Studio flat,"Bridge Meadows, London, SE14",SE14,0.0,51.4841703,-0.0479725,"Bridge Meadows, London SE14, UK"
161,245000.0,Flat,"High Road Leytonstone, London, E11",E11,1.0,51.5625643,0.0092778,"High Rd Leytonstone, London E11, UK"
162,244950.0,Studio flat,"Hornsey Road, Upper Holloway, N19",N19,0.0,51.5643892,-0.1193839,"Hornsey Rd, London N19, UK"
163,243000.0,Flat,"Loughborough Park, Brixton, SW9 ",SW9,1.0,51.4616099,-0.1045558,"Loughborough Park, London SW9, UK"
164,242500.0,Apartment,"Jolles House, Bow, E3",E3,2.0,51.5283545,-0.0154514,"Jolles House, 90 Bromley High St., London E3, UK"
165,242000.0,Apartment,"Grebe Close, London, E7",E7,1.0,51.5507681,0.0158731,"Grebe Cl, London E7, UK"
166,240000.0,Studio flat,"Marder Road, Ealing, W13",W13,0.0,51.5037634,-0.3232876,"Marder Rd, London W13, UK"
167,240000.0,Flat,"Northumberland Road, Beckton , London, E6 5RW",E6,1.0,51.514445,0.0517078,"Northumberland Rd, Lindwood Cl, London E6 5RW, UK"
168,157500.0,Apartment,"Flat 12 Spinney Court, Earlham Grove, London, E7",E7,3.0,51.5484539,0.0230617,"Earlham Grove, London E7, UK"
169,240000.0,Flat,"Robins Court, Chinbrook Road, London, SE12",SE12,2.0,51.4315918,0.0295024,"Robins Ct & Chinbrook Rd, London SE12 9QL, UK"
170,240000.0,Studio flat,"Windmill Drive, London, NW2",NW2,0.0,51.5624463,-0.2102167,"Windmill Dr, London NW2, UK"
171,240000.0,Flat,"Osprey Heights, 7 Bramlands Close, London, SW11",SW11,1.0,51.4660954,-0.1712621,"Bramlands Cl, London SW11 2NR, UK"
172,240000.0,Apartment,"Copley Close, London, W7",W7,2.0,51.522692,-0.3315901,"Copley Cl, London W7, UK"
173,240000.0,Apartment,"South Norwood Hill, South Norwood, London, SE25",SE25,1.0,51.4044959,-0.0816994,"S Norwood Hill, London SE25, UK"
174,240000.0,Apartment,"Willow Court, 34 Trinity Close, Leytonstone, London, E11 4RU",E11,1.0,51.5638549,0.0071056,"34 Willow Ct, Trinity Cl, London E11 4RU, UK"
175,240000.0,Flat,"Eglinton Hill, London, SE18",SE18,3.0,51.4768474,0.068907,"Eglinton Hill, London SE18, UK"
176,240000.0,Flat,"Blackbird Hll, Queensbury, London, NW9",NW9,2.0,51.5647371,-0.2631691,"Blackbird Hill, London HA9, UK"
177,240000.0,Apartment,"Hermitage Lane, London, SE25",SE25,1.0,51.386302,-0.073752,"Hermitage Ln, London CR0, UK"
178,240000.0,Flat,"Ladywell Road, London SE13",SE13,1.0,51.4565198,-0.0208727,"Ladywell Rd, London SE13, UK"
179,240000.0,Duplex,Silvertown WayLondonE16 1ED,E16,3.0,51.5144975,0.0088344,"Silvertown Way, London E16 1ED, UK"
180,240000.0,Apartment,"Viscount Drive, London, E6",E6,1.0,51.5172648,0.0552008,"Viscount Dr, London E6, UK"
181,240000.0,Flat,"Rutland Walk, London, SE6",SE6,1.0,51.4370392,-0.0322958,"Rutland Walk, London SE6, UK"
182,240000.0,Studio flat,"Roman Road, Bow, London, E3",E3,0.0,51.5317418,-0.0359542,"Roman Rd, London E3, UK"
183,240000.0,Flat,"Devons Road, London, E3",E3,1.0,51.5221628,-0.0182983,"Devons Rd, London E3, UK"
184,240000.0,Flat,"Flat A, 509 Lea Bridge Road, Leyton, London E10 7EB",E10,1.0,51.5732031,-0.0167017,"a, 509 Lea Bridge Rd, London E10 7EB, UK"
185,240000.0,Studio flat,"Friars Avenue, Kingston Vale, London, SW15",SW15,0.0,51.4375409,-0.2497076,"Friars Ave, London SW15, UK"
186,240000.0,Studio flat,"Tiptree Drive, Enfield, EN2",EN2,0.0,51.6481253,-0.0810179,"Tiptree Dr, Enfield EN2 6TY, UK"
187,240000.0,Flat,"Flat 3, 38 Peckham High Street, London, SE15 5DP",SE15,1.0,51.47328719999999,-0.0713195,"3, 38 Peckham High St, London SE15 5DP, UK"
188,240000.0,Flat,"BIRNBECK COURT, FINCHLEY ROAD, LONDON, NW11",NW11,1.0,51.58513989999999,-0.1994515,"Birnbeck Court, 850 Finchley Rd, London NW11 6BB, UK"
189,240000.0,Apartment,"Tennison Road, London, SE25",SE25,1.0,51.3934808,-0.0783797,"Tennison Rd, London SE25, UK"
190,240000.0,Flat,"Jellicoe Road, London, E13",E13,1.0,51.5215662,0.0221056,"Jellicoe Rd, London E13, UK"
191,240000.0,Flat,"Kendal Parade, Edmonton, N18",N18,2.0,51.61646,-0.0842692,"Kendal Parade, London N18, UK"
192,240000.0,Flat,"Flat A, 83 Greenvale Road, Eltham, London SE9 1PE",SE9,2.0,51.45764,0.0560739,"a, 83 Greenvale Rd, London SE9 1PE, UK"
193,240000.0,Flat,"Strongbow Crescent, London, SE9",SE9,2.0,51.4539831,0.0529101,"Strongbow Cres, London SE9, UK"
194,240000.0,Studio flat,"Brompton Road, Knightsbridge, SW3",SW3,0.0,51.4986816,-0.1654069,"Brompton Rd, London, UK"
195,240000.0,Flat,"Belgravia House, Clapham Park, London, SW4",SW4,1.0,51.4540602,-0.1325439,"London SW4 8HY, UK"
196,240000.0,Flat,"Doyle Road, SE25",SE25,1.0,51.3972164,-0.0728365,"Doyle Rd, London SE25, UK"
197,239995.0,Flat,"Finchs Court Mews, Poplar High Street, London, E14",E14,1.0,51.5089031,-0.0149058,"Finchs Ct & Poplar High St, London E14 0AW, UK"
198,239995.0,Flat,"Westley Court, South Norwood Hill, South Norwood, SE25",SE25,1.0,51.4013891,-0.0771615,"Westley Court, 36 S Norwood Hill, London SE25 6AG, UK"
199,239995.0,Flat,"Beaufort Close, Chingford , London. E4 9XF",E4,1.0,51.6076627,-0.0101268,"Beaufort Cl, London E4 9XF, UK"
200,239950.0,Flat,"16, Bampton Court Blakesley Avenue, Ealing, W5",W5,1.0,51.5189992,-0.307793,"Bampton Court, 33-35 Blakesley Ave, London W5 2DQ, UK"
201,239950.0,Property,"Avenue Road, N14",N14,1.0,51.639521,-0.1337525,"Avenue Rd, London N14, UK"
202,120625.0,Apartment,"South Grove,Waltham Forest,E17",E17,2.0,51.5807097,-0.0291063,"South Grove, London E17, UK"
203,239950.0,Studio apartment,"Oliver Grove, London, SE25",SE25,0.0,51.3991048,-0.0786074,"Oliver Grove, London SE25, UK"
204,237500.0,Apartment,"Masey Mews, Brixton, SW2",SW2,2.0,51.4571614,-0.1139153,"Masey Mews, London SW2, UK"
205,237000.0,Apartment,"1a Fox Lane,Palmers Green,London,N13 4ER",N13,1.0,51.6213826,-0.1084679,"Blln Dumayne House, 1 Fox Ln, London N13 4AB, UK"
206,236000.0,Apartment,"Plough Lane,London,SW17 0BL",SW17,2.0,51.43153969999999,-0.1866871,"Plough Ln, London SW17 0NR, UK"
207,236000.0,Apartment,"Plough Lane,London,SW17 0BL",SW17,2.0,51.43153969999999,-0.1866871,"Plough Ln, London SW17 0NR, UK"
208,235000.0,Studio flat,"Yerbury Road, N19 4RN",N19,0.0,51.5600639,-0.1276792,"Yerbury Rd, London N19 4RN, UK"
209,235000.0,Property,"Church Road , Upper Norwood, London, SE19",SE19,1.0,51.4176303,-0.080742,"Church Rd, London SE19, UK"
210,235000.0,Property,"FRIERN PARK, NORTH FINCHLEY, N12",N12,2.0,51.6157192,-0.1699116,"Friern Park, London N12, UK"
211,235000.0,Flat,"Runnerstone Court, 29 Watermill Lane, London, N18",N18,1.0,51.6130776,-0.0800288,"29 Watermill Ln, London N18 1ST, UK"
212,235000.0,Studio flat,"Abbeyfields Close, London, NW10 7EJ",NW10,0.0,51.5334023,-0.2828373,"Abbeyfields Cl, London NW10 7EJ, UK"
213,235000.0,Flat,"Brixton Hill, SW2",SW2,1.0,51.4533088,-0.1205905,"Brixton Hill, London SW2, UK"
214,235000.0,Studio flat,"Abbeyfields Close, London, NW10",NW10,0.0,51.5335202,-0.2819702,"Abbeyfields Cl, London NW10, UK"
215,235000.0,Flat,"Greenhill Court, Greenhill Terrace, London, SE18",SE18,1.0,51.486786,0.0557375,"Greenhill Court, Greenhill Terrace, London SE18 4BS, UK"
216,235000.0,Studio flat,Courthill Road London SE13,SE13,0.0,51.4564359,-0.0098905,"Courthill Rd, London SE13, UK"
217,235000.0,Property,"Nightingale Court, 53 Church Road, London, SE19",SE19,1.0,51.4182931,-0.0798427999999999,"Nightingale Court, 53 Church Rd, London SE19 2TJ, UK"
218,235000.0,Flat,"George Loveless House, Diss Street, London, E2",E2,1.0,51.529841,-0.0728352999999999,"London E2 7QY, UK"
219,235000.0,Flat,"Oakleigh Road North, Whetstone, N20",N20,1.0,51.6273517,-0.1613685,"Oakleigh Rd N, London N20, UK"
220,235000.0,Flat,"Agate Close, London, E16",E16,1.0,51.5111382,0.0440813,"Agate Cl, London E16, UK"
221,235000.0,Studio flat,"Hornsey Road, Upper Holloway, N19",N19,0.0,51.5643892,-0.1193839,"Hornsey Rd, London N19, UK"
222,235000.0,Studio flat,"Garratt Lane, Earlsfield, London, SW18",SW18,0.0,51.4425186,-0.1884994,"Garratt Ln, London, UK"
223,235000.0,Studio flat,"Curtiss House, 27 Heritage Avenue, Colindale, NW9",NW9,0.0,51.5952802,-0.2425758,"27 Heritage Ave, London NW9 5WT, UK"
224,235000.0,Studio flat,"Kersfield Road, Kersfield House, SW15",SW15,0.0,51.4531707,-0.2181644,"Kersfield House, 11 Kersfield Rd, London SW15 3HJ, UK"
225,235000.0,Property,"Church Road, Upper Norwood, London, SE19",SE19,1.0,51.4176303,-0.080742,"Church Rd, London SE19, UK"
226,235000.0,Property,"Footscray Road, London, SE9",SE9,2.0,51.4406554,0.0694337,"Footscray Rd, London SE9, UK"
227,235000.0,Apartment,"Merton Road, London, SW18",SW18,2.0,51.4484455,-0.1992768,"Merton Rd, London SW18, UK"
228,234000.0,Flat,"Newson House, 123 Loughborough Park, Brixton, SW9",SW9,2.0,51.4591268,-0.1056158,"123 Loughborough Park, London SW9 8FU, UK"
229,232500.0,Flat,"BIRNBECK COURT, FINCHLEY ROAD, LONDON, NW11",NW11,1.0,51.58513989999999,-0.1994515,"Birnbeck Court, 850 Finchley Rd, London NW11 6BB, UK"
230,232000.0,Apartment,Silvertown WayLondonE16 1ED,E16,3.0,51.5144975,0.0088344,"Silvertown Way, London E16 1ED, UK"
231,126250.0,Flat,"Imperial Street,Bow,London,E3 3EA",E3,2.0,51.5260088,-0.0101227,"Imperial St, London E3, UK"
232,231000.0,Flat,"Bow Road, Bow, E3",E3,2.0,51.5275138,-0.0235044,"Bow Rd, Bow, London E3, UK"
233,231000.0,Flat,"London E8 3FU, London, E8 3FU",E8,2.0,51.5420372,-0.0568521,"London E8 3FU, UK"
234,230000.0,Flat,"Golden Hind Place, Grove Street, London, SE8",SE8,1.0,51.4892591,-0.0351248,"Golden Hind Place, Grove St, London SE8 3QG, UK"
235,230000.0,Flat,"Homan Court, North Finchley, N12 9HW",N12,1.0,51.6192967,-0.1740785,"Homan Court, 17 Friern Watch Ave, London N12 9HW, UK"
236,230000.0,Apartment,"Barking Road, London, E13",E13,1.0,51.5243441,0.0266129,"Barking Rd, London E13, UK"
237,230000.0,Flat,"Birchanger Road, London, SE25",SE25,1.0,51.391723,-0.0718565,"Birchanger Rd, London SE25, UK"
238,230000.0,Flat,"Angell Road, London, SW9",SW9,1.0,51.4671569,-0.1071432,"Angell Rd, London SW9, UK"
239,230000.0,Flat,"High Street, Stratford, E15",E15,1.0,51.5339354,-0.007294,"High St, London E15, UK"
240,230000.0,Apartment,"Boston Road, Hanwell, W7",W7,1.0,51.5037246,-0.3329234,"Boston Rd, London W7, UK"
241,230000.0,Flat,"Russett Way, London, SE13",SE13,2.0,51.4682231,-0.0146985,"Russett Way, London SE13, UK"
242,230000.0,Flat,"1a Blenheim Grove, London, Greater London, SE15 4QS",SE15,1.0,51.4695689,-0.0688757,"1A Blenheim Grove, London SE15 4QS, UK"
243,230000.0,Flat,"Hind House, 4 Myers Lane, London, SE14",SE14,1.0,51.4823943,-0.0471913,"Hind House, 4 Myers Ln, London SE14 5RU, UK"
244,230000.0,Flat,"Point Pleasant, SW18",SW18,2.0,51.4612994,-0.1994383,"Point Pleasant, London SW18, UK"
245,230000.0,Flat,"Radnor House, 1272 London Road, London, SW16",SW16,1.0,51.4494391,-0.2420994,"Radnor House, 1272 London Rd, London SW15 4DQ, UK"
246,230000.0,Flat,"Ballinger Point, London, E3 3EH",E3,1.0,51.5277795,-0.0152676,"London E3 3EH, UK"
247,230000.0,Studio flat,"Corbyn Street, London N4",N4,0.0,51.5669148,-0.1206707,"Corbyn St, Finsbury Park, London N4, UK"
248,230000.0,Studio flat,"Dagmar Court, London, E14",E14,0.0,51.4963077,-0.0073876,"Dagmar Ct, London E14, UK"
249,230000.0,Property,"Homan Court, 17 Friern Watch Avenue, North Finchley, N12",N12,1.0,51.6192967,-0.1740785,"Homan Court, 17 Friern Watch Ave, London N12 9HW, UK"
250,230000.0,Flat,"Northumberland Park , Tottenham, Tottenham, London, N17",N17,1.0,51.6024517,-0.0676958,"Northumberland Park, London N17 0AG, UK"
251,230000.0,Flat,"Blenheim Grove, London SE15",SE15,1.0,51.4692771,-0.0704647,"Blenheim Grove, London SE15, UK"
252,230000.0,Studio flat,"Greyhound Hill, Hendon, London, NW4",NW4,0.0,51.5921344,-0.2320535,"Greyhound Hill, London NW4, UK"
253,230000.0,Flat,"Tideslea Path, West Thamesmead, SE28 0NH",SE28,2.0,51.5014583,0.0858436,"Tideslea Path, London SE28 0NH, UK"
254,230000.0,Flat,"Kathleen Godfree Court, Wimbledon, SW19 8LB",SW19,1.0,51.4244389,-0.1976741,"Kathleen Godfree Court, 80 Queen's Rd, London SW19 8LB, UK"
255,230000.0,Flat,"Barking Road, London, E13",E13,1.0,51.5243441,0.0266129,"Barking Rd, London E13, UK"
256,230000.0,Flat,"South Norwood Hill, South Norwood, London, SE25",SE25,1.0,51.4044959,-0.0816994,"S Norwood Hill, London SE25, UK"
257,230000.0,Studio apartment,"Hurlingham Road, London, SW6",SW6,0.0,51.470195,-0.2044484,"Hurlingham Rd, London SW6, UK"
258,230000.0,Apartment,"Knowles House, 7 Neville Gill Close, London, SW18",SW18,1.0,51.4540584,-0.1945365,"Knowles House, 7 Neville Gill Cl, London SW18 4BP, UK"
259,230000.0,Flat,"Barking Road, Plaistow, London, E13",E13,1.0,51.5243441,0.0266129,"Barking Rd, London E13, UK"
260,230000.0,Apartment,"Brockway Close, London, E11",E11,1.0,51.5644699,0.0091068,"Brockway Cl, Bushwood, London E11, UK"
261,230000.0,Apartment,"Stokes Court, Diploma Avenue, N2",N2,1.0,51.5887744,-0.1658554,"Stokes Court, Diploma Ave, London N2 8NX, UK"
262,230000.0,Flat,"Tulse Hill, Brixton / Tulse Hill, SW2",SW2,1.0,51.4496382,-0.1179015,"Tulse Hill, London SW2, UK"
263,230000.0,Property,"Lychgate Court, Friern Park, North Finchley, N12",N12,2.0,51.61552649999999,-0.1737249,"Lychgate Court, 34 Friern Park, London N12 9UL, UK"
264,229995.0,Studio flat,"Myers Lane, New Cross, SE14",SE14,0.0,51.4828782,-0.0475637,"Myers Ln, London SE14, UK"
265,229995.0,Studio flat,"Glenville Grove, Deptford, London, SE8",SE8,0.0,51.476583,-0.0295608,"Glenville Grove, London, UK"
266,229950.0,Studio flat,"Upper Richmond Road West, East Sheen, London, SW14",SW14,0.0,51.4647477,-0.2666837,"Upper Richmond Rd W, United Kingdom"
267,157500.0,Apartment,"Flat 12 Spinney Court, Earlham Grove, London, E7",E7,3.0,51.5484539,0.0230617,"Earlham Grove, London E7, UK"
268,228000.0,Apartment,"Plough Lane,London,SW17 0BL",SW17,2.0,51.43153969999999,-0.1866871,"Plough Ln, London SW17 0NR, UK"
269,228000.0,Apartment,"Plough Lane,London,SW17 0BL",SW17,2.0,51.43153969999999,-0.1866871,"Plough Ln, London SW17 0NR, UK"
270,227000.0,Flat,"Dagnall Park, London, SE25",SE25,1.0,51.3914296,-0.0896861,"Dagnall Park, London SE25, UK"
271,225000.0,Flat,"Culverley Road, London, SE6 2LE",SE6,2.0,51.4431287,-0.0191043,"Culverley Rd, London SE6 2LE, UK"
272,225000.0,Flat,5 Angel Lane London SE17,SE17,1.0,51.4886068,-0.0973904,"5 Angel Ln, London SE17 3FE, UK"
273,225000.0,Flat,"Grinstead Road, London, SE8",SE8,1.0,51.4854588,-0.0388742,"Grinstead Rd, London SE8, UK"
274,225000.0,Flat,"Ullswater Court, Glebelands Avenue, South Woodford, E18",E18,1.0,51.5927199,0.0253169,"Ullswater Court, 1 Glebelands Ave, London E18 2BD, UK"
275,225000.0,Flat,"Paxton Court, Grove Park, SE12 9QQ",SE12,2.0,51.4321433,0.0317614,"Paxton Court, Marvels Ln, London SE12 9QQ, UK"
276,225000.0,Flat,"Beulah Hill, Upper Norwood, London, SE19",SE19,2.0,51.4164388,-0.0967908,"Beulah Hill, London, UK"
277,225000.0,Studio flat,"Well Street, London, E9",E9,0.0,51.5424583,-0.0488325,"Well St, London E9, UK"
278,225000.0,Studio flat,"Everard House, Boyd Street, London, E1",E1,0.0,51.5127846,-0.0661114,"Everard House, Boyd St, London E1 1LY, UK"
279,225000.0,Flat,"Rothesay Court, Cumberland Place, London, SE6",SE6,1.0,51.4395026,0.0103201,"Cumberland Pl, London SE6, UK"
280,225000.0,Studio flat,"Little St Leonards, East Sheen, SW14",SW14,0.0,51.4674386,-0.2683044,"Little St Leonards, London SW14, UK"
281,225000.0,Studio flat,"Davisville Road, Shepherd's Bush W12",W12,0.0,51.5025735,-0.240105,"Davisville Rd, London W12, UK"
282,225000.0,Flat,"Flat 67 Cornwallis Court, Darsley Drive, Lansdowne Green Estate, London, SW8 2NX",SW8,1.0,51.4760658,-0.1308981,"Lansdowne Green, London SW8, UK"
283,225000.0,Apartment,"City Road, EC1V 1AP",EC1V,1.0,51.5297735,-0.097367,"City Rd, London, UK"
284,225000.0,Studio flat,Orchard Grove London SE20,SE20,0.0,51.4167757,-0.0706806,"Orchard Grove, London SE20, UK"
285,225000.0,Studio flat,Westbourne Drive London SE23,SE23,0.0,51.4381816,-0.0506534,"Westbourne Dr, London SE23, UK"
286,225000.0,Flat,"Chelsea Bridge Wharf SW11, Battersea Park, London, SW11",SW11,1.0,51.4832718,-0.1488661,"Chelsea Bridge Wharf, Nine Elms, London SW11, UK"
287,225000.0,Flat,Palace Road London SW2 3LF,SW2,1.0,51.4390011,-0.1067754,"Palace Rd, London SW2 3LF, UK"
288,225000.0,Studio flat,"Westwell Road, Streatham Common, London, SW16",SW16,0.0,51.4200681,-0.1300396,"Westwell Rd, London SW16, UK"
289,225000.0,Flat,"2, Darndale Close, Walthamstow, London, ,, E17 5LL",E17,2.0,51.5931989,-0.0286348,"Devon House, 2 Darndale Cl, London E17 5LL, UK"
290,225000.0,Property,"Paxton Court, Marvel's Lane, Lewisham, SE12",SE12,2.0,51.4321433,0.0317614,"Paxton Court, Marvels Ln, London SE12 9QQ, UK"
291,225000.0,Terraced house,"Millbrook Square, Mill Hill, London, NW7",NW7,3.0,51.6102406,-0.2082044,"Millbrook Square, London NW7 1TT, UK"
292,225000.0,Flat,"Birkbeck Road, Hornsey, London, N8",N8,1.0,51.5866196,-0.1211123,"Birkbeck Rd, London N8, UK"
293,225000.0,Apartment,"Acton Town Hall Apartments, Winchester Street, W3",W3,1.0,51.5066377,-0.2676062,"Acton Town Hall, High St, London W3 8UH, UK"
294,225000.0,Studio flat,"Knights Hill, West Norwood, SE27",SE27,0.0,51.429236,-0.1042386,"Knights Hill, Norwood, London SE27, UK"
295,225000.0,Apartment," FORDWYCH ROAD ,  LONDON, NW2",NW2,2.0,51.5515109,-0.2067361,"Fordwych Rd, London NW2, UK"
296,225000.0,Apartment,"Scrutton Close, London, SW12",SW12,1.0,51.4476827,-0.1337872,"Scrutton Cl, London SW12, UK"
297,225000.0,Apartment,"Flintmill Crescent, Kidbrooke SE3",SE3,1.0,51.4650549,0.0459348,"Flintmill Cres, London SE3, UK"
298,225000.0,Studio flat,"Avonley Road, New Cross, London, SE14",SE14,0.0,51.4789489,-0.0503842,"Avonley Rd, London SE14, UK"
299,225000.0,Flat,"Cumberland Place, London, SE6",SE6,1.0,51.4395026,0.0103201,"Cumberland Pl, London SE6, UK"
300,225000.0,Apartment,"Old School Close, Merton Park, London, SW19",SW19,1.0,51.4101754,-0.2014914,"St Mary's Mead, London SW19 3HY, UK"
301,225000.0,Apartment,"Clifford Road, London, SE25",SE25,1.0,51.397565,-0.0739496,"Clifford Rd, London SE25, UK"
302,225000.0,Flat,"Green Pond Close, Walthamstow, E17",E17,1.0,51.5920169,-0.0304946,"Green Pond Cl, London E17, UK"
303,224950.0,Property,"Central Avenue, Edmonton, N9",N9,1.0,51.6238174,-0.0727946,"Central Ave, London N9, UK"
304,224000.0,Apartment,"Hoe Street,London,E17",E17,3.0,51.5828666,-0.0183308,"Hoe St, London E17, UK"
305,224000.0,Apartment,"Plough Lane,London,SW17 0BL",SW17,2.0,51.43153969999999,-0.1866871,"Plough Ln, London SW17 0NR, UK"
306,223000.0,Apartment,"Redcar Street, London, SE5",SE5,1.0,51.4774867,-0.0985681,"Redcar St, London SE5, UK"
307,222500.0,Property,"Village Road, London, EN1",EN1,2.0,51.6415171,-0.0783356,"Village Rd, Enfield EN1, UK"
308,220500.0,Flat,"Putney Hill, SW15",SW15,2.0,51.4554112,-0.2195225,"Putney Hill, London SW15, UK"
309,220000.0,Apartment,"Andridge Court, 2A Church Lane, London, SW19",SW19,1.0,51.4131873,-0.2047367,"Andridge Court, 2A Church Ln, London SW19 3JW, UK"
310,220000.0,Flat,"Beulah Hill, Upper Norwood, SE19",SE19,1.0,51.4164388,-0.0967908,"Beulah Hill, London, UK"
311,220000.0,Flat,"Riverhope Mansions, Harlinger Street, Woolwich, London, SE18",SE18,1.0,51.4947542,0.0486044999999999,"Riverhope Mansions, Harlinger St, London SE18 5SS, UK"
312,220000.0,Flat,"West Heath Road, London, SE2",SE2,2.0,51.4793537,0.1243521,"W Heath Rd, London SE2, UK"
313,220000.0,Apartment,"218A Sebert Road, London, E7 0NP",E7,2.0,51.5514558,0.0346779,"218A Sebert Rd, London E7 0NP, UK"
314,220000.0,Flat,"Westow Hill, London, ,, SE19 1RX",SE19,2.0,51.4197283,-0.0811845,"Westow Hill, London SE19 1RX, UK"
315,220000.0,Flat,"Hurst Street, London, London, SE24 0EQ",SE24,1.0,51.4534108,-0.1040776,"Hurst St, London SE24 0EQ, UK"
316,220000.0,Apartment,"London Road, London, SW16",SW16,1.0,51.4057767,-0.1203935,"London Rd, London SW16, UK"
317,220000.0,Terraced house,"Angus Gardens, London, NW9",NW9,1.0,51.601647,-0.255588,"Angus Gardens, Edgware, London HA8, UK"
318,220000.0,Studio flat,"Waldemar Avenue, Fulham, London, SW6",SW6,0.0,51.473429,-0.2108572,"Waldemar Ave, London SW6, UK"
319,220000.0,Flat,"Coopers Road, Bermondsey, London, SE1",SE1,3.0,51.4877039,-0.0725392,"Cooper's Rd, London SE1, UK"
320,220000.0,Studio flat,Micheldever Road Lee SE12,SE12,0.0,51.4520639,0.0094735,"Micheldever Rd, London SE12, UK"
321,220000.0,Flat,"North Circular Road, London, NW10",NW10,1.0,51.5459321,-0.2695035,"N Circular Rd., London NW10, UK"
322,220000.0,Flat,"South Norwood Hill, London, SE25",SE25,1.0,51.4044959,-0.0816994,"S Norwood Hill, London SE25, UK"
323,220000.0,Property,"Avenue Road, London, N14",N14,1.0,51.639521,-0.1337525,"Avenue Rd, London N14, UK"
324,220000.0,Flat,"Gavestone Road, London, SE12",SE12,2.0,51.445135,0.0229126,"Gavestone Rd, London SE12, UK"
325,220000.0,Studio flat,"Hackney Road, London, E2",E2,0.0,51.5311159,-0.0674904,"Hackney Rd, London E2, UK"
326,220000.0,Flat,"Catford Broadway, London, SE6",SE6,2.0,51.4454261,-0.0210751,"Catford Broadway, London SE6, UK"
327,220000.0,Apartment,"Cumberland Place, LONDON, SE6",SE6,1.0,51.4395026,0.0103201,"Cumberland Pl, London SE6, UK"
328,220000.0,Flat,"Charlton Court, High Street South, London, E6",E6,2.0,51.5235974,0.0577175,"Charlton Court, High St S, London E6 6JD, UK"
329,220000.0,Flat,"Dagnall Park, Selhurst, SE25",SE25,1.0,51.3914296,-0.0896861,"Dagnall Park, London SE25, UK"
330,220000.0,Apartment,"The Ridgeway, London, E4",E4,2.0,51.6287628,-0.005641,"The Ridgeway, London E4, UK"
331,220000.0,Studio flat,"Victoria Road, Hendon, London, NW4",NW4,0.0,51.5883401,-0.218917,"Victoria Rd, London NW4, UK"
332,220000.0,Apartment,"Crystal Palace, London, SE19",SE19,2.0,51.4197233,-0.0830638,"Crystal Palace, London SE19, UK"
333,220000.0,Flat,"Kathleen Godfree Court, Wimbledon, SW19 8LB",SW19,1.0,51.4244389,-0.1976741,"Kathleen Godfree Court, 80 Queen's Rd, London SW19 8LB, UK"
334,220000.0,Flat,"24A Falmer Road, Walthamstow, London E17 3BJ",E17,1.0,51.5887103,-0.015192,"24A Falmer Rd, London E17 3BJ, UK"
335,220000.0,Studio flat,"St Maryâ€™s Road, London, NW10",NW10,0.0,51.5408301,-0.2507178,"St Mary's Rd, London NW10, UK"
336,220000.0,Bungalow,"82 Cemetery Road, Forest Gate, E7 9DG",E7,1.0,51.5523015,0.0172458,"82 Cemetery Rd, London E7 9BW, UK"
337,220000.0,Flat,"Croydon Road, London, SE20",SE20,1.0,51.4086385,-0.0595237,"Croydon Rd, London SE20, UK"
338,220000.0,Studio flat,"Hornsey Road, London,N19",N19,0.0,51.5643892,-0.1193839,"Hornsey Rd, London N19, UK"
339,220000.0,House,"Millwall Outer Dock, Isle of Dogs E14",E14,2.0,51.49464028344279,-0.0197838468629445,"Millwall Outer Dock, London E14, UK"
340,220000.0,Flat,"60 Sinclair Road, London, ,, W14 0NH",W14,1.0,51.4993314,-0.212765,"60 Sinclair Rd, London W14 0NH, UK"
341,220000.0,Flat,"Emily Duncan Place, London, E7",E7,1.0,51.5512137,0.0257828,"London E7 0BD, UK"
342,220000.0,Apartment,"Beaminster Court, South Grove, Tottenham, London, N15",N15,1.0,51.5814439,-0.083595,"South Grove, London N15, UK"
343,220000.0,Flat,"102 Vaine House, Cassland Road, London, E9 5BU",E9,2.0,51.5443187,-0.0385548,"London E9 5BT, UK"
344,220000.0,Flat,"Peckham High Street, Peckham, London, SE15",SE15,1.0,51.4738891,-0.0684374,"Peckham High St, London SE15, UK"
345,219950.0,Property,"Balcon Court, Boileau Road, Ealing, W5 3AZ",W5,1.0,51.5176599,-0.2900564,"Balcon Court, Boileau Rd, London W5 3AZ, UK"
346,216000.0,Flat,"Orchard Court, 35 Bell Green, Sydenham, London, SE26",SE26,2.0,51.4297815,-0.0369821,"35 Bell Grn, London SE26 4EN, UK"
347,215000.0,Studio flat,"Ashmore Road, London, W9",W9,0.0,51.5289114,-0.2025051,"Ashmore Rd, London W9, UK"
348,118500.0,Apartment,"1a Fox Lane,Palmers Green,London,N13 4ER",N13,1.0,51.6213826,-0.1084679,"Blln Dumayne House, 1 Fox Ln, London N13 4AB, UK"
349,215000.0,Studio flat,"Camarthen Green, Snowdon Drive, NW9",NW9,0.0,51.5820576,-0.2515040000000001,"Camarthen Green, 4 Cambrian Grn, Snowdon Dr, London NW9 7RH, UK"
350,215000.0,Flat,"Lewisham High Street, London, SE13",SE13,1.0,51.4579512,-0.0131307,"Lewisham High St, London SE13, UK"
351,215000.0,Maisonette,"32 Burgoyne Road, South Norwood, SE25",SE25,1.0,51.3977247,-0.0812711,"32 Burgoyne Rd, London SE25 6JT, UK"
352,215000.0,Property,"Stokes Court, East Finchley, N2",N2,1.0,51.5887744,-0.1658554,"Stokes Court, Diploma Ave, London N2 8NX, UK"
353,215000.0,Flat,"Wall End Road, East Ham, London, E6",E6,1.0,51.5367721,0.0614938,"Wall End Rd, London E6, UK"
354,215000.0,Property,"Stokes Court, East Finchley, N2",N2,1.0,51.5887744,-0.1658554,"Stokes Court, Diploma Ave, London N2 8NX, UK"
355,215000.0,Property,"Stokes Court, East Finchley, N2",N2,1.0,51.5887744,-0.1658554,"Stokes Court, Diploma Ave, London N2 8NX, UK"
356,214000.0,Flat,"Renaissance Square, Chiswick, London, W4",W4,1.0,51.4859251,-0.2540748,"Chiswick, London W4 2DZ, UK"
357,213000.0,Apartment,"Hoe Street,London,E17",E17,1.0,51.5828666,-0.0183308,"Hoe St, London E17, UK"
358,212500.0,Flat,"Seven Sisters, Finsbury Park, London, N4",N4,1.0,51.5681306,-0.0993667,"Seven Sisters Rd, London N4, UK"
359,212000.0,Apartment,"Stokes Court, Diploma Avenue, LONDON, N2",N2,1.0,51.5887744,-0.1658554,"Stokes Court, Diploma Ave, London N2 8NX, UK"
360,211750.0,Flat,"Trevelyan Road, Tooting, London, SW17",SW17,1.0,51.4226211,-0.1678905,"Trevelyan Rd, London SW17, UK"
361,185000.0,Apartment,"Gunyard Mews, London, SE18",SE18,1.0,51.47451,0.0458999,"Gunyard Mews, London SE18, UK"
362,211500.0,Flat,"Lightford House, 105 Loughborough Park, SW9",SW9,1.0,51.4587176,-0.1067387,"105 Loughborough Park, London SW9 8FS, UK"
363,210000.0,Flat,"Wall End Road, London, E6",E6,1.0,51.5367721,0.0614938,"Wall End Rd, London E6, UK"
364,210000.0,Property,"Stannard Court, Catford, SE6 2LE",SE6,2.0,51.4437131,-0.0192451,"Stannard Court, Culverley Rd, London SE6 2LE, UK"
365,210000.0,Flat,"Mandeville Court, Chingford, E4",E4,2.0,51.614992,-0.0312455,"Mandeville Ct, London E4 8JB, UK"
366,210000.0,Studio apartment,"Newby Place, London, E14",E14,0.0,51.5101628,-0.0121373,"Newby Pl, London E14, UK"
367,210000.0,Apartment,"Prince Of Wales Drive,Battersea,London,SW11 4FA",SW11,2.0,51.4754239,-0.1571424,"Prince of Wales Dr, London SW11, UK"
368,210000.0,Flat,"Lilllie Road, Fulham, London, SW6",SW6,2.0,51.4841182,-0.2066596,"Lillie Rd, London SW6, UK"
369,210000.0,Flat,"Flat 2, 325 Lea Bridge Road, Leyton, London E10 7LA",E10,2.0,51.5705712,-0.0251097,"2, 325 Lea Bridge Rd, London E10 7LA, UK"
370,210000.0,Flat,9th Floor Flat in E3 4NG,E3,1.0,51.5250995,-0.0258577,"Wellington Way, London E3 4NG, UK"
371,210000.0,Flat,"Frances Street, Woolwich, London, SE18",SE18,1.0,51.4895775,0.0534973,"Frances St, London SE18, UK"
372,210000.0,Flat,"Redcar Street, London, SE5",SE5,1.0,51.4774867,-0.0985681,"Redcar St, London SE5, UK"
373,210000.0,Flat,"Pegasus Court, 194 Horn Lane, Acton, W3",W3,1.0,51.5162912,-0.267439,"29, Pegasus Court, 194 Horn Ln, London W3 6PT, UK"
374,210000.0,Flat,"Flat E, 148 Oakleigh Road South, New Southgate, London, N11 1HG",N11,1.0,51.62194479999999,-0.1498472,"e, 148 Oakleigh Rd S, London N11 1HG, UK"
375,210000.0,Flat,"Gayton House, Chiltern Road, London, E3",E3,2.0,51.5220206,-0.0208662,"Chiltern Rd, London E3 4BX, UK"
376,210000.0,Duplex,"Gloucester Road, London, N17",N17,3.0,51.5920548,-0.0825637,"Gloucester Rd, London N17, UK"
377,210000.0,Studio flat,"Abbeyfields Close, London, NW10",NW10,0.0,51.5335202,-0.2819702,"Abbeyfields Cl, London NW10, UK"
378,210000.0,Studio flat,"Peaberry Court, 87 Greyhound Hill, London, NW4",NW4,0.0,51.5922299,-0.2339331,"Peaberry Court, 87 Greyhound Hill, London NW4 4JE, UK"
379,210000.0,Apartment,"Daling Way, London, E3",E3,1.0,51.5338824,-0.0363341,"Daling Way, Bow, London E3, UK"
380,210000.0,Flat,"Alderwood Road, Eltham, London, SE9",SE9,1.0,51.4481541,0.0843498,"Alderwood Rd, London SE9, UK"
381,208000.0,Maisonette,"Crouch End Hill, Crouch End, London, N8",N8,2.0,51.5762676,-0.1259942,"Crouch End Hill, London N8, UK"
382,208000.0,Flat,"Rye Lane, Southwark, London, SE15",SE15,2.0,51.4695928,-0.0682143,"Rye Ln, London SE15, UK"
383,206250.0,Flat,"Bow Common Lane, London E3",E3,1.0,51.5206451,-0.0268997,"Bow Common Ln, London E3, UK"
384,206000.0,Apartment,"Peartree Way, Greenwich, London, SE10",SE10,2.0,51.4909104,0.01794,"Peartree Way, London SE10, UK"
385,205250.0,Flat,"Millbrook Square, Mill Hill, London, NW7",NW7,1.0,51.6102406,-0.2082044,"Millbrook Square, London NW7 1TT, UK"
386,205000.0,Studio flat,"Barrington Road, Brixton SW9",SW9,0.0,51.4654769,-0.1073285,"Barrington Rd, London SW9, UK"
387,205000.0,Flat,Moore Road London SE19,SE19,1.0,51.421058,-0.1021657,"Moore Rd, London SE19, UK"
388,205000.0,Studio flat,"Pullman Court XIII, Streatham Hill, London SW2",SW2,0.0,51.4429932,-0.1228966,"Pullman Court, London SW2 4SZ, UK"
389,205000.0,Apartment,"Edgware Road, Colindale, London, NW9",NW9,1.0,51.5881357,-0.252099,"Edgware Rd, Colindale, Edgware, London, UK"
390,205000.0,Studio flat,"2 Myers Lane, London, SE14",SE14,0.0,51.482699,-0.0474186,"Heywood House, 2 Myers Ln, London SE14 5RU, UK"
391,204000.0,Studio flat,"Wood Lane,White City,London,W12 7RQ",W12,0.0,51.5123373,-0.2249677,"Wood Ln, London W12, UK"
392,202500.0,Apartment,"Avery Court, 40 Capitol Way, London, NW9",NW9,2.0,51.5943232,-0.2638264,"40-45 Capitol Way, London NW9 0EQ, UK"
393,202500.0,Flat,"Aviation Drive, Colindale, London, NW9",NW9,3.0,51.5962493,-0.2398546,"Aviation Dr, Edgware, London NW9, UK"
394,202500.0,Flat,"Wandsworth Bridge Road, SW6",SW6,1.0,51.4702035,-0.1910581,"Wandsworth Bridge Rd, London SW6, UK"
395,202500.0,Flat,"Putney Hill, SW15",SW15,1.0,51.4554112,-0.2195225,"Putney Hill, London SW15, UK"
396,200000.0,Flat,"Kenneth Robbins House, Northumberland Park, London, N17",N17,1.0,51.603643,-0.056903,"London N17 0QB, UK"
397,200000.0,Flat,"Ferrydale Lodge, Church Road, Hendon NW4",NW4,1.0,51.5901564,-0.2218676,"Ferrydale Lodge, 48 Church Rd, London NW4 4EW, UK"
398,200000.0,Flat,"Flat, London, E2",E2,1.0,51.52813399999999,-0.0616511999999999,"London E2, UK"
399,200000.0,Flat,Wythfield Road London SE9,SE9,1.0,51.4501881,0.0505411,"Wythfield Rd, London SE9, UK"
400,200000.0,House,"Boardwalk Place, London, E14",E14,2.0,51.5059413,-0.0102067,"Boardwalk Pl, London E14, UK"
401,200000.0,Flat,"Lynton Court 115c, Anerley Road, London, SE20",SE20,1.0,51.4126084,-0.0672938,"Lynton Court, 115 Anerley Rd, Anerley, London SE20 8AJ, UK"
402,200000.0,Flat,"High Street, Penge, SE20",SE20,2.0,51.4154029,-0.053117,"High St, London SE20, UK"
403,200000.0,Flat,"Rushey Green, Catford, London, SE6",SE6,1.0,51.4475976,-0.0181868,"Rushey Grn, London SE6, UK"
404,200000.0,House,"Limehouse Basin Marina, London, E14",E14,4.0,51.51138817288783,-0.0362989306604474,"Limehouse Basin, London E14, UK"
405,200000.0,Flat,"109 Radnor House, 1272 London Road, London, SW16 4EB",SW16,2.0,51.4076664,-0.121072,"Radnor House, 1272 London Rd, Norbury, London SW16 4EB, UK"
406,200000.0,Apartment,"Flat 4 Melcombe Regis Court, 59, Weymouth Street, London, W1G 8NS",W1G,1.0,51.5198554,-0.150786,"4, Melcombe Regis Court, 59 Weymouth St, London W1G 8NS, UK"
407,200000.0,Flat,"Sangley Road, Catford, London, SE6",SE6,2.0,51.4430501,-0.0141467,"Sangley Rd, London SE6, UK"
408,120625.0,Apartment,"South Grove,Waltham Forest,E17",E17,2.0,51.5807097,-0.0291063,"South Grove, London E17, UK"
409,200000.0,Flat,"Homan Court, 17 Friern Watch Avenue, London, Uk, N12",N12,2.0,51.6192967,-0.1740785,"Homan Court, 17 Friern Watch Ave, London N12 9HW, UK"
410,200000.0,Flat,"Cornwallis Rd, London, SE18 6SL",SE18,2.0,51.4930434,0.075667,"Cornwallis Rd, Royal Arsenal, London SE18 6SL, UK"
411,200000.0,Flat,"Matilda Apartments, WC2H",WC2H,1.0,51.5157181,-0.1282423,"London WC2H, UK"
412,200000.0,Property,"850 Finchley Road, London, NW11",NW11,1.0,51.58513989999999,-0.1994515,"Birnbeck Court, 850 Finchley Rd, London NW11 6BB, UK"
413,200000.0,Apartment,"Ennerdale Court, 57 Cambridge Road, E11",E11,1.0,51.57272889999999,0.019518,"57 Cambridge Rd ., London E11 2UA, UK"
414,200000.0,Flat,"London Road, Norbury, London, SW16",SW16,1.0,51.407413,-0.1213266,"London Rd, Norbury, London, UK"
415,200000.0,Flat,"London Road, Norbury, London, SW16",SW16,2.0,51.407413,-0.1213266,"London Rd, Norbury, London, UK"
416,200000.0,Apartment,"Redgrave Close, Croydon, CR0",CR0,1.0,51.3881804,-0.0758845,"Redgrave Cl, Croydon CR0 6XP, UK"
417,200000.0,Apartment,"Avenue Road, Southgate, N14 4BW",N14,1.0,51.6371448,-0.1368408,"Avenue Rd, London N14 4BW, UK"
418,200000.0,Apartment,"Fladbury Road, London, N15",N15,1.0,51.5775631,-0.0848158,"Fladbury Rd, London N15, UK"
419,200000.0,Flat,"Homan Court, North Finchley, N12 9HW",N12,2.0,51.6192967,-0.1740785,"Homan Court, 17 Friern Watch Ave, London N12 9HW, UK"
420,200000.0,Flat,"16 Manor Park Parade, Lee, SE13",SE13,2.0,51.4572429,-0.0021835,"16 Manor Park, London SE13 5RN, UK"
421,200000.0,Flat,"364B New Cross Road, New Cross, London SE14 6AG ",SE14,2.0,51.47583729999999,-0.0338745,"364 New Cross Rd, London SE14, UK"
422,200000.0,Studio apartment,"Langham Court, Wyke Road, London, SW20",SW20,0.0,51.4104408,-0.2267269,"Langham Court, Wyke Rd, Raynes Park, London SW20 8RR, UK"
423,200000.0,Flat,"8 Halliwick Court Woodhouse Road, London, N12 0ND",N12,2.0,51.6125842,-0.159285,"Woodhouse Rd, London N12 0ND, UK"
424,200000.0,Flat,"Anerley Road, London, SE19",SE19,1.0,51.4131785,-0.0684942,"Anerley Rd, London SE19, UK"
425,200000.0,Flat,Redcar Street London SE5,SE5,1.0,51.4774867,-0.0985681,"Redcar St, London SE5, UK"
426,109250.0,Apartment,Leamouth RoadLondonE14 0JG,E14,1.0,51.5119877,0.0001385,"Leamouth Rd, London E14, UK"
427,200000.0,Property,"St. Katharines Way, London, E1W",E1W,1.0,51.5064717,-0.071685,"St Katharine's Way, London E1W, UK"
428,200000.0,Flat,"Dunraven Drive, Enfield, EN2",EN2,1.0,51.6597916,-0.1021105,"Dunraven Dr, Enfield EN2, UK"
429,200000.0,Studio flat,"Fountayne Road, London, N16",N16,0.0,51.5639828,-0.0657638,"Fountayne Rd, London N16, UK"
430,200000.0,Apartment,"Gloucester Road, London, N17",N17,2.0,51.5920548,-0.0825637,"Gloucester Rd, London N17, UK"
431,200000.0,Studio flat,"Caledonian Road, Islington, London, N1",N1,0.0,51.5415541,-0.1171403,"Caledonian Rd, London N1, UK"
432,200000.0,Studio apartment,"Langham Court, Wyke Road, London, SW20",SW20,0.0,51.4104408,-0.2267269,"Langham Court, Wyke Rd, Raynes Park, London SW20 8RR, UK"
433,200000.0,Apartment,"Plowman Close, London, N18",N18,1.0,51.6133888,-0.0817564,"Plowman Cl, London N18, UK"
434,200000.0,Flat,"Milton Avenue, London, E6 1BH",E6,1.0,51.5386638,0.0479637,"Milton Ave, London E6 1BH, UK"
435,200000.0,Apartment,Silvertown WayLondonE16 1ED,E16,2.0,51.5144975,0.0088344,"Silvertown Way, London E16 1ED, UK"
436,200000.0,Apartment,"Somers Road, Walthamstow, E17",E17,1.0,51.5847922,-0.0265931,"Somers Rd, London E17, UK"
437,200000.0,Studio flat,"Fountayne Road, London, N16",N16,0.0,51.5639828,-0.0657638,"Fountayne Rd, London N16, UK"
438,199999.0,Flat,Rushey Green London SE6,SE6,1.0,51.4475976,-0.0181868,"Rushey Grn, London SE6, UK"
439,199950.0,Flat,"1 Bampton Court, Blakesley Avenue, Ealing, W5",W5,1.0,51.5189992,-0.307793,"Bampton Court, 33-35 Blakesley Ave, London W5 2DQ, UK"
440,199000.0,Studio flat,"Cambrian Green, Snowdon Drive, London, NW9",NW9,0.0,51.582359,-0.2506223,"Cambrian Grn & Snowdon Dr, Edgware, London NW9 7RJ, UK"
441,199000.0,House,"Limehouse Basin Marina, Limehouse, E14",E14,2.0,51.5105301,-0.0364298,"The Harbourmasters Office, 46 Goodhart Pl, London E14 8EG, UK"
442,198750.0,Flat,"Wood Lane,White City,London,W12 7RQ",W12,2.0,51.5123373,-0.2249677,"Wood Ln, London W12, UK"
443,197750.0,Flat,"415 Wick Lane,Fish Island, London,E3 2JG",E3,3.0,51.5364415,-0.0228981,"415 Wick Ln, Fish Island, London E3 2JG, UK"
444,195000.0,Flat,"Chaffinch Close, Edmonton, London, N9",N9,1.0,51.6306072,-0.0415631,"Chaffinch Cl, London N9, UK"
445,195000.0,Flat,"Garden Flat, 31 Thurlow Park Road, Lambeth, London, SE21 8JP",SE21,2.0,51.4404326,-0.1027853,"31 Thurlow Park Rd, Norwood, London SE21 8JP, UK"
446,195000.0,Studio flat,"Caledonian Road, Islington, London, N1",N1,0.0,51.5415541,-0.1171403,"Caledonian Rd, London N1, UK"
447,195000.0,Property,"Diploma Avenue, London, N2",N2,1.0,51.588635,-0.1650488,"Diploma Ave, London N2, UK"
448,220000.0,Flat,"Coopers Road, Bermondsey, London, SE1",SE1,3.0,51.4877039,-0.0725392,"Cooper's Rd, London SE1, UK"
449,195000.0,Property,"Farnham Close, London, N20",N20,1.0,51.6386566,-0.1783413,"Farnham Cl, London N20, UK"
450,195000.0,Apartment,"Landmark Pinnacle, Canary Wharf, E14",E14,2.0,51.5022468,-0.0251799,"40 Landmark Sq, London E14 9AB, UK"
451,195000.0,Flat,"Flat 22 Broadgate, 727 Barking Road, London, E13 9ES",E13,2.0,51.53023109999999,0.0363399,"22, 727 Barking Rd, London E13 9ES, UK"
452,195000.0,Apartment,"Cardrew Close, North Finchley N12",N12,2.0,51.6149268,-0.1672355,"Cardrew Cl, London N12, UK"
453,195000.0,Flat,"Cumberland Place, London, SE6",SE6,1.0,51.4395026,0.0103201,"Cumberland Pl, London SE6, UK"
454,192500.0,Flat,"Beulah Hill, Upper Norwood, London, SE19",SE19,1.0,51.4164388,-0.0967908,"Beulah Hill, London, UK"
455,192500.0,Apartment,"Landmark Pinnacle, Canary Wharf, E14",E14,2.0,51.5022468,-0.0251799,"40 Landmark Sq, London E14 9AB, UK"
456,192000.0,Apartment,"2 Ashridge Close, Finchley, N3",N3,2.0,51.5916398,-0.1909894,"2 Ashridge Cl, London N3 3AR, UK"
457,192000.0,Flat,"Allied Court, London, Greater London, N1",N1,2.0,51.5400644,-0.0776509,"Allied Court, 25 Enfield Rd, London N1 5ER, UK"
458,190000.0,Apartment,"8a Station Road, London, N11",N11,1.0,51.6120216,-0.1372671,"8A Station Rd, Arnos Grove, London N11 1FR, UK"
459,190000.0,Flat,"Flat B, 151 Selhurst Road, Croydon, London SE25 6LQ",SE25,1.0,51.3950132,-0.0853321,"b, 151 Selhurst Rd, London SE25 6ND, UK"
460,190000.0,Studio flat,"Upper Grove, South Norwood, London, SE25",SE25,0.0,51.3975198,-0.0820559,"Upper Grove, London SE25, UK"
461,190000.0,Flat,"Marlowe Road, Walthamstow, Waltham Forest, E17",E17,1.0,51.5871106,-0.0066086,"Marlowe Rd, London E17, UK"
462,190000.0,Apartment,Calderwood Street SE18,SE18,2.0,51.4908013,0.06439,"Calderwood St, London SE18, UK"
463,190000.0,Studio flat,"Holloway Road, N7",N7,0.0,51.5570934,-0.118467,"Holloway Rd, London N7, UK"
464,190000.0,Studio flat,"Claremont Road, Cricklewood, NW2",NW2,0.0,51.5618814,-0.214103,"Claremont Rd, London, UK"
465,190000.0,Flat,"Hatfield Close, London, SE14",SE14,1.0,51.4772461,-0.0493097,"Hatfield Cl, London SE14, UK"
466,240000.0,Duplex,Silvertown WayLondonE16 1ED,E16,3.0,51.5144975,0.0088344,"Silvertown Way, London E16 1ED, UK"
467,190000.0,Apartment,"Manor Road, London, SE25",SE25,2.0,51.3998403,-0.0721855,"Manor Rd, London SE25, UK"
468,190000.0,Property,"Footscray Road, London, SE9",SE9,1.0,51.4406554,0.0694337,"Footscray Rd, London SE9, UK"
469,190000.0,Flat,"105 Park Avenue, Enfield, EN1",EN1,1.0,51.6436716,-0.0802773,"105 Regency Ct, Park Ave, Enfield EN1 2HR, UK"
470,190000.0,Flat,"Hampden Road, Hornsey, London, N8",N8,1.0,51.5874804,-0.1068804,"Hampden Rd, Harringay Ladder, London N8, UK"
471,190000.0,Apartment,"Oceanis Apartments, Royal Victoria Dock, E16",E16,2.0,51.5087485,0.0189582,"Oceanis Apartments, 19 Seagull Ln, London E16 1BY, UK"
472,190000.0,Flat,"Manor Road, London, Greater London, SE25 4TA",SE25,2.0,51.3998119,-0.072247,"Manor Rd, London SE25 4TA, UK"
473,189995.0,House,"Boardwalk Place, London, E14",E14,2.0,51.5059413,-0.0102067,"Boardwalk Pl, London E14, UK"
474,189995.0,Flat,"Westminster Court, 23 Cambridge Park, London, E11",E11,1.0,51.5758184,0.0270007,"Westminster Court, 23 Cambridge Park, London E11 2UB, UK"
475,189000.0,Apartment,"Rigel House, 18 Hemming St, Bethnal Green, London,E1 5GB",E1,3.0,51.5230059,-0.0634788,"18 Hemming St, London E1 5GB, UK"
476,188125.0,Apartment,Parkside Place London SE10,SE10,2.0,51.4951067,0.0117044,"W Parkside, London SE10, UK"
477,187500.0,Flat,"Killick Street, Islington, London, N1",N1,2.0,51.5332461,-0.1185939,"Killick St, London N1, UK"
478,187500.0,Apartment,"Lido House, Northfield Avenue, W13",W13,2.0,51.5104275,-0.319042,"Lido House, Northfield Ave, London W13 9LD, UK"
479,187500.0,Apartment,"Ingleby Road, Islington, London, N7",N7,1.0,51.561583,-0.1207465,"Ingleby Rd, London N7, UK"
480,187250.0,Penthouse,"179 Dartmouth Road, London, SE26",SE26,2.0,51.433133,-0.0586253,"179 Dartmouth Rd, London SE26 4QX, UK"
481,186000.0,Apartment,"Rigel House, 18 Hemming St, Bethnal Green, London,E1 5GB",E1,2.0,51.5230059,-0.0634788,"18 Hemming St, London E1 5GB, UK"
482,185000.0,Apartment,"Gunyard Mews, London, SE18",SE18,1.0,51.47451,0.0458999,"Gunyard Mews, London SE18, UK"
483,250000.0,Flat,"Armoury Road, Deptford, London, SE8",SE8,1.0,51.4672581,-0.0161527,"Armoury Rd, London SE8, UK"
484,185000.0,Studio flat,"Orchard Grove, London, SE20",SE20,0.0,51.4167757,-0.0706806,"Orchard Grove, London SE20, UK"
485,185000.0,Studio flat,"Holloway Road,  Holloway, N7",N7,0.0,51.5570934,-0.118467,"Holloway Rd, London N7, UK"
486,185000.0,Property,"Farnham Close, London, N20",N20,1.0,51.6386566,-0.1783413,"Farnham Cl, London N20, UK"
487,185000.0,Studio apartment,"Salford Road, Greater London, SW2",SW2,0.0,51.4426067,-0.1342071,"Salford Rd, London SW2, UK"
488,185000.0,Studio apartment,"Cambalt Road, Putney, SW15",SW15,0.0,51.4586285,-0.2202358,"Cambalt Rd, London SW15, UK"
489,185000.0,Flat,"Stannard Court, Culverley Road, London, SE6",SE6,1.0,51.4437131,-0.0192451,"Stannard Court, Culverley Rd, London SE6 2LE, UK"
490,185000.0,Flat,"Clifton Park Avenue, London, SW20",SW20,1.0,51.408943,-0.228367,"Clifton Park Ave, Raynes Park, London SW20, UK"
491,185000.0,Studio flat,"Whitehead Close, Edmonton, N18",N18,0.0,51.6137187,-0.0830534,"Whitehead Cl, London N18, UK"
492,185000.0,Studio flat,"Tavistock Square, Bloomsbury, WC1H",WC1H,0.0,51.5248219,-0.1295116,"Tavistock Square, London WC1H, UK"
493,185000.0,Flat,"Stannard Court, Catford, London, SE6",SE6,2.0,51.4437131,-0.0192451,"Stannard Court, Culverley Rd, London SE6 2LE, UK"
494,185000.0,House,"St. Katharine Docks, Wapping, E1W",E1W,3.0,51.5083845,-0.071709,"St Katherine Dock, London E1W, UK"
495,185000.0,Flat,"Bentley Court (Lewisham), Lewisham, SE13 7US",SE13,1.0,51.45799090000001,-0.0139488,"Bentley Court, Whitburn Rd, London SE13 7US, UK"
496,185000.0,Terraced house,"Westwell Mews, SW16",SW16,1.0,51.4200681,-0.1300396,"Westwell Rd, London SW16, UK"
497,185000.0,Property,"4 Bycullah Road, Enfield, EN2",EN2,1.0,51.654638,-0.0950263,"Oakdene House, 4 Bycullah Rd, Enfield EN2 8HB, UK"
498,185000.0,Flat,"Cambridge Road, London, E11",E11,1.0,51.5736612,0.0191735,"Cambridge Rd ., London E11, UK"
499,183750.0,Flat,"Aw4ken, Barrogate Road, W4 4QP",W4,2.0,51.4883113,-0.2639846,"78 Barrowgate Rd, Greater, Chiswick, London W4 4QU, UK"
500,183750.0,Flat,"Monmouth Court, Bermondsey, London, SE1",SE1,2.0,51.5139108,-0.1270011,"Monmouth St, London WC2H, UK"
501,183750.0,Apartment,"London,SE3 9FW",SE3,3.0,51.46186780000001,0.0270228,"London SE3 9FW, UK"
502,183000.0,Flat,"Poole Street, London, N1",N1,2.0,51.5357472,-0.0878393,"Poole St, London N1, UK"
503,109250.0,Apartment,Leamouth RoadLondonE14 0JG,E14,1.0,51.5119877,0.0001385,"Leamouth Rd, London E14, UK"
504,183000.0,Flat,"Poole Street, London, N1",N1,2.0,51.5357472,-0.0878393,"Poole St, London N1, UK"
505,182000.0,Flat,"Candish Court, N8, Crouch End, London, N8",N8,2.0,51.5895278,-0.1179032,"Miles Rd, London N8 7FR, UK"
506,182000.0,Flat,"Vernon Court, 35 Gordon Road, Ealing, London, W5",W5,1.0,51.5147038,-0.3092444,"w5, Vernon Court, 35 Gordon Rd, London W5 2AS, UK"
507,180000.0,Apartment,"Festive Mansions, London, E20",E20,2.0,51.548314,-0.0104247,"10 Napa Cl, East Village, London E20 1EA, UK"
508,180000.0,Flat,"49 High Street, London, SE20",SE20,1.0,51.4174724,-0.0576356,"49 High St, London SE20 7HW, UK"
509,180000.0,Studio flat,"Leigham Court Road, Streatham Hill, London, SW16",SW16,0.0,51.4381698,-0.1268254,"Leigham Ct Rd & Streatham Hill, London SW2 4RU, UK"
510,180000.0,Apartment,"The Oxygen Apartments, Royal Victoria Dock E16",E16,2.0,51.5077767,0.0300599,"Royal Victoria Dock, London E16 1XL, UK"
511,180000.0,Flat,"Greenacres House, London, Greater London, SW18",SW18,2.0,51.4438831,-0.1937637,"FA, 32 Knaresborough Dr, London SW18, UK"
512,180000.0,Apartment,"Anerley Road, London, SE20",SE20,1.0,51.4121078,-0.0670089,"Anerley Rd, London SE20, UK"
513,180000.0,Studio flat,"Holloway Road, Holloway, London, N7",N7,0.0,51.5570934,-0.118467,"Holloway Rd, London N7, UK"
514,180000.0,Apartment,"Everard Court, Crothall Close, London, N13",N13,1.0,51.6248144,-0.1124197,"Everard Court, 9 Crothall Cl, London N13 4BW, UK"
515,180000.0,Studio flat,"Flat 207 Pullman Court, Streatham Hill, London, SW2 4TA",SW2,0.0,51.4429932,-0.1228966,"Pullman Court, London SW2 4SZ, UK"
516,180000.0,Property,"Park Avenue, London, EN1",EN1,1.0,51.6412154,-0.0785697,"Park Ave, Enfield EN1, UK"
517,180000.0,Flat,"Horseferry Road, London, E14",E14,1.0,51.5106352,-0.0390633,"Horseferry Rd, London E14, UK"
518,180000.0,Apartment,"Longfield Avenue, London, W5",W5,2.0,51.5138561,-0.3084238,"Longfield Ave, London W5, UK"
519,180000.0,Flat,"Avondale Square, Bermondsey, London, SE1",SE1,1.0,51.4865076,-0.0696381,"Avondale Square, London SE1, UK"
520,180000.0,Flat,"Catalina Court, Sunnybank, South Norwood, SE25",SE25,1.0,51.40071589999999,-0.0721093,"Catalina Court, 61-63 Sunny Bank, London SE25 4TZ, UK"
521,180000.0,Flat,"42 Centre Point, Avondale Square, London, SE1 5NX",SE1,1.0,51.4877867,-0.068897,"Avondale Square, London, UK"
522,180000.0,Property,"Kings Lodge, Kingsway, North Finchley, N12",N12,1.0,51.61223099999999,-0.1773038,"Kings Lodge, Kingsway, London N12 0EW, UK"
523,180000.0,Studio flat,"Blythe Hill, Catford, London, SE6",SE6,0.0,51.4443102,-0.0333185,"Blythe Hill, London SE6, UK"
524,180000.0,Apartment,"Flat 25 Horton House, 15 Lovelinch Close, London, SE15 1HG",SE15,1.0,51.482111,-0.0508736,"Horton House, 15 Lovelinch Cl, London SE15 1HG, UK"
525,180000.0,Property,"4 Bycullah Road, Enfield, EN2",EN2,1.0,51.654638,-0.0950263,"Oakdene House, 4 Bycullah Rd, Enfield EN2 8HB, UK"
526,180000.0,Studio flat,"Bampton Road, Forest Hill, London, SE23",SE23,0.0,51.433291,-0.0493624,"Bampton Rd, London SE23, UK"
527,180000.0,Property,"4 Bycullah Road, Enfield, EN2",EN2,1.0,51.654638,-0.0950263,"Oakdene House, 4 Bycullah Rd, Enfield EN2 8HB, UK"
528,180000.0,Flat,"Tudway Road, Kidbrooke, SE3",SE3,2.0,51.4586495,0.0312486,"Tudway Rd, London SE3, UK"
529,178000.0,Apartment,"Hoe Street,London,E17",E17,2.0,51.5828666,-0.0183308,"Hoe St, London E17, UK"
530,177500.0,Apartment,"Prince Of Wales Drive,Battersea,London,SW11 4FA",SW11,1.0,51.4754239,-0.1571424,"Prince of Wales Dr, London SW11, UK"
531,177000.0,Apartment,"Coppetts Wood,Muswell Hill, London,N10 1JN",N10,1.0,51.6026931,-0.1532857,"Coppetts Rd, London N10 1JS, UK"
532,176250.0,Apartment,"Flat 13, Spinney Court, 148 Earlham Grove, London, E7",E7,3.0,51.54857939999999,0.0239528,"13, 148 Earlham Grove, London E7 9AB, UK"
533,176000.0,Flat,"Courtenay House, Brixton, London, SW2",SW2,2.0,51.4477821,-0.1260795,"Courtenay House, 9 New Park Rd, Brixton Hill, London SW2 4DN, UK"
534,175000.0,Apartment,"Coppetts Wood,Muswell Hill, London,N10 1JN",N10,1.0,51.6026931,-0.1532857,"Coppetts Rd, London N10 1JS, UK"
535,146250.0,Apartment,"Marsh Wall,London,E14 9SH",E14,1.0,51.5001988,-0.0163933,"Marsh Wall, London E14 9SH, UK"
536,175000.0,Apartment,"Coppetts Wood,Muswell Hill, London,N10 1JN",N10,1.0,51.6026931,-0.1532857,"Coppetts Rd, London N10 1JS, UK"
537,175000.0,Flat,"Ashburton Triangle, Drayton Park, N5",N5,1.0,51.5566636,-0.1076833,"Drayton Park, London N5 1GD, UK"
538,175000.0,Flat,"Lanacre Avenue, London, NW9",NW9,2.0,51.6011751,-0.251918,"Lanacre Ave, London NW9, UK"
539,175000.0,Flat,"Flat 4 Sycamore Court, 228 Romford Road, Forest Gate, London, E7 9HB",E7,3.0,51.5455249,0.0207839,"4, Sycamore Court, 228 Romford Rd, London E7 9HB, UK"
540,175000.0,Apartment,"St. Elizabeths Court, Mayfield Avenue, North Finchley, N12",N12,1.0,51.6199678,-0.1742141,"St Elizabeths Court, Mayfield Ave, London N12 9HZ, UK"
541,175000.0,Apartment,"Deptford Broadway, Deptford, London, SE8 4PH.",SE8,1.0,51.474813,-0.0252081,"Deptford Broadway, London SE8 4PH, UK"
542,175000.0,Flat,"Sherborne Court, Elmers End Road, London, SE20",SE20,2.0,51.4082049,-0.0595816999999999,"Sherborne Court, Elmers End Rd, London SE20 7SL, UK"
543,175000.0,Apartment,"Palmerston Road, Bowes Park, N22",N22,1.0,51.6063658,-0.1147708,"Palmerston Rd, London, UK"
544,175000.0,Flat,"Cedar Close, Dulwich, London, SE21",SE21,1.0,51.4403346,-0.0974308,"Cedar Cl, Norwood, London SE21, UK"
545,175000.0,Apartment,"Coppetts Wood,Muswell Hill, London,N10 1JN",N10,1.0,51.6026931,-0.1532857,"Coppetts Rd, London N10 1JS, UK"
546,175000.0,Flat,"Shipman Road, London, E16",E16,1.0,51.511674,0.0310872,"Shipman Rd, London E16, UK"
547,175000.0,Property,"Oakdene House, Bycullah Road, ENFIELD, EN2",EN2,1.0,51.654638,-0.0950263,"Oakdene House, 4 Bycullah Rd, Enfield EN2 8HB, UK"
548,175000.0,Flat,"Flat B 456 Kingston Road, Wimbledon, London SW20 8DX",SW20,1.0,51.41063159999999,-0.2187532,"b, 456 Kingston Rd, Wimbledon Chase, London SW20 8DX, UK"
549,146250.0,Apartment,"Marsh Wall,London,E14 9SH",E14,1.0,51.5001988,-0.0163933,"Marsh Wall, London E14 9SH, UK"
550,174000.0,Apartment,"Oceanis Apartments, Royal Victoria Dock, E16",E16,2.0,51.5087485,0.0189582,"Oceanis Apartments, 19 Seagull Ln, London E16 1BY, UK"
551,173750.0,Apartment,"Prince Of Wales Drive,Battersea,London,SW11 4FA",SW11,1.0,51.4754239,-0.1571424,"Prince of Wales Dr, London SW11, UK"
552,173750.0,Flat,"Wood Lane,White City,London,W12 7RQ",W12,1.0,51.5123373,-0.2249677,"Wood Ln, London W12, UK"
553,172500.0,Flat,"Enterprise Way, London, SW18",SW18,2.0,51.4614457,-0.1962219,"Enterprise Way, London SW18, UK"
554,172500.0,Apartment,"Dockley Road, Bermondsey, SE16 3SN",SE16,2.0,51.4955888,-0.0687414,"Dockley Rd, London SE16 3SN, UK"
555,171250.0,Apartment,"Prince Of Wales Drive,Battersea,London,SW11 4FA",SW11,1.0,51.4754239,-0.1571424,"Prince of Wales Dr, London SW11, UK"
556,171250.0,Duplex,"Silvertown Way,London,E16",E16,3.0,51.5090247,0.0134637,"Silvertown Way, London E16, UK"
557,171250.0,Flat,"Forrester Way, Stratford, London, E15",E15,3.0,51.5456803,-0.0019253,"Forrester Way, London E15, UK"
558,171000.0,Flat,"Tudway Road, London, SE3",SE3,2.0,51.4586495,0.0312486,"Tudway Rd, London SE3, UK"
559,170000.0,Studio flat,"Swaythling Close, Edmonton, N18",N18,0.0,51.6174592,-0.0526378,"Swaythling Cl, London N18, UK"
560,170000.0,Flat,"Grasmere Court, Enfield, EN1 1DJ",EN1,1.0,51.6462061,-0.0772390999999999,"20 Village Rd, London EN1 1DJ, UK"
561,170000.0,Apartment,"Kings Lodge, Kingsway, N12",N12,1.0,51.61223099999999,-0.1773038,"Kings Lodge, Kingsway, London N12 0EW, UK"
562,170000.0,Apartment,"Barons Court, Church Lane, Kingsbury, LONDON, NW9",NW9,2.0,51.579344,-0.2621689,"Barons Court, Church Ln, Kingsbury Green, London NW9 8AG, UK"
563,170000.0,Apartment,"Prince Of Wales Drive,Battersea,London,SW11 4FA",SW11,1.0,51.4754239,-0.1571424,"Prince of Wales Dr, London SW11, UK"
564,170000.0,Studio flat,"Geldeston Road, Clapton E5",E5,0.0,51.5636261,-0.0630361,"Geldeston Rd, London E5, UK"
565,105000.0,Flat,"104-110 Broadway, Uxbridge Road,West Ealing,London,W13 0SY",W13,1.0,51.5117734,-0.3807926,"Ramesh Jewellers, 104 The Broadway, Southall UB1 1QF, UK"
566,170000.0,Property,"Nova Cura, Limehouse Basin, E14",E14,2.0,51.51138817288783,-0.0362989306604474,"Limehouse Basin, London E14, UK"
567,170000.0,Property,"300c Brockley Road, Brockley, London SE4 2RA",SE4,1.0,51.45889810000001,-0.0341476,"300C Brockley Rd, London SE4 2RA, UK"
568,169995.0,Property,"Roma, South Dock Marina, Surrey Quays SE16",SE16,1.0,51.4935033,-0.0359344,"Lock Office, Rope St, London SE16 7SZ, UK"
569,169995.0,House,"South Dock Marina, Surrey Quays SE16",SE16,1.0,51.4935033,-0.0359344,"Lock Office, Rope St, London SE16 7SZ, UK"
570,169000.0,Studio flat,"Caledonian Road, Islington, London, N1",N1,0.0,51.5415541,-0.1171403,"Caledonian Rd, London N1, UK"
571,168000.0,Flat,"Greenroof Way, Greenwich, London, SE10",SE10,2.0,51.4926482,0.0134442,"Greenroof Way, London SE10, UK"
572,168000.0,Property,"Vernon Court, Gordon Road, Ealing, W5",W5,1.0,51.5147038,-0.3092444,"Vernon Court, 35 Gordon Rd, London W5 2AS, UK"
573,168000.0,Apartment,"179 Dartmouth Road, London, SE26",SE26,2.0,51.433133,-0.0586253,"179 Dartmouth Rd, London SE26 4QX, UK"
574,168000.0,Flat,"Vernon Court, Gordon Road, Ealing, W5",W5,1.0,51.5147038,-0.3092444,"Vernon Court, 35 Gordon Rd, London W5 2AS, UK"
575,167500.0,Apartment,"Prince Of Wales Drive,Battersea,London,SW11 4FA",SW11,1.0,51.4754239,-0.1571424,"Prince of Wales Dr, London SW11, UK"
576,167000.0,Apartment,"Coppetts Wood,Muswell Hill, London,N10 1JN",N10,1.0,51.6026931,-0.1532857,"Coppetts Rd, London N10 1JS, UK"
577,166250.0,Flat,"Holford Way, Roehampton, London, SW15",SW15,2.0,51.4526185,-0.2421522,"Holford Way, London SW15, UK"
578,166250.0,Apartment,"Prince Of Wales Drive,Battersea,London,SW11 4FA",SW11,1.0,51.4754239,-0.1571424,"Prince of Wales Dr, London SW11, UK"
579,166250.0,Flat,"The Saddler Building, 24 Wharf Road, Shoreditch, London, N1",N1,1.0,51.5309842,-0.0953514999999999,"The Saddler Building, 24 Wharf Rd, London N1 7GQ, UK"
580,166250.0,Flat,"Apsley House, Putney, London, SW15",SW15,2.0,51.4605849,-0.2151894,"APSLEY HOUSE, 176 Upper Richmond Rd, London SW15 2SH, UK"
581,165000.0,House,"South Dock Marina, Surrey Quays SE16",SE16,1.0,51.4935033,-0.0359344,"Lock Office, Rope St, London SE16 7SZ, UK"
582,165000.0,Flat,"Brownhill Road, London, ., SE6 1AG",SE6,1.0,51.4451152,-0.0022958,"Brownhill Rd, London SE6 1AG, UK"
583,165000.0,Studio flat,"Howden Road, London, SE25",SE25,0.0,51.4052277,-0.0801397,"Howden Rd, London SE25, UK"
584,165000.0,House,"Boardwalk Place, London, E14",E14,2.0,51.5059413,-0.0102067,"Boardwalk Pl, London E14, UK"
585,165000.0,Apartment,"Prince Of Wales Drive,Battersea,London,SW11 4FA",SW11,1.0,51.4754239,-0.1571424,"Prince of Wales Dr, London SW11, UK"
586,165000.0,House,"Blackwall Basin, Canary Wharf E14",E14,2.0,51.50416670271361,-0.0106273553007043,"Blackwall Basin, London E14, UK"
587,165000.0,Studio flat,"Flat 5 The Garden Flats, 22 Leigham Court Road, Streatham Hill, London, SW16 2PL",SW16,0.0,51.4348919,-0.1238633,"5, The Lodge, 22 Leigham Ct Rd, London SW16 2PL, UK"
588,165000.0,Flat,"Flat A 456 Kingston Road, Wimbledon, London SW20 8DX",SW20,1.0,51.41063159999999,-0.2187532,"a, 456 Kingston Rd, Wimbledon Chase, London SW20 8DX, UK"
589,165000.0,Flat,"Flat 3, 325 Lea Bridge Road, Leyton, London E10 7LA",E10,1.0,51.5705712,-0.0251097,"3, 325 Lea Bridge Rd, London E10 7LA, UK"
590,165000.0,Property,"Bramhope Lane, London, SE7",SE7,1.0,51.4810432,0.0291151,"Bramhope Ln, London SE7, UK"
591,165000.0,Apartment,"Prince Of Wales Drive,Battersea,London,SW11 4FA",SW11,1.0,51.4754239,-0.1571424,"Prince of Wales Dr, London SW11, UK"
592,164375.0,Flat,"Eastfields Avenue,WandsworthLondon,SW18 1YR",SW18,2.0,51.4622472,-0.1977899,"Eastfields Ave, London SW18, UK"
593,163125.0,Flat,"Eastfields Avenue,WandsworthLondon,SW18 1YR",SW18,2.0,51.4622472,-0.1977899,"Eastfields Ave, London SW18, UK"
594,163125.0,Flat,"Eastfields Avenue,WandsworthLondon,SW18 1YR",SW18,2.0,51.4622472,-0.1977899,"Eastfields Ave, London SW18, UK"
595,163125.0,Flat,"Eastfields Avenue,WandsworthLondon,SW18 1YR",SW18,2.0,51.4622472,-0.1977899,"Eastfields Ave, London SW18, UK"
596,162500.0,Flat,"Batsford House, London, Greater London, SW19",SW19,1.0,51.4297809,-0.190834,"Batsford House, 35 Durnsford Rd, London SW19 8GS, UK"
597,161000.0,Apartment,"Sheba Place, Shoreditch, E1",E1,1.0,51.5229106,-0.0777472,"Shoreditch, London, UK"
598,142000.0,Apartment,"Hoe Street,London,E17",E17,1.0,51.5828666,-0.0183308,"Hoe St, London E17, UK"
599,161000.0,Apartment,"Sheba Place, Shoreditch, E1",E1,1.0,51.5229106,-0.0777472,"Shoreditch, London, UK"
600,161000.0,Flat,"Newson House, Brixton, London, SW9",SW9,1.0,51.4800979,-0.0829168,"London SE15 6BY, UK"
601,160250.0,Apartment,"Plough Lane,London,SW17 0BL",SW17,3.0,51.43153969999999,-0.1866871,"Plough Ln, London SW17 0NR, UK"
602,160000.0,Property,"Eben Haizer, Limehouse Basin, Limehouse, E14",E14,3.0,51.51138817288783,-0.0362989306604474,"Limehouse Basin, London E14, UK"
603,160000.0,Flat,"192 Horn Lane, London, W3",W3,1.0,51.5159554,-0.267771,"Aspen Court, 192 Horn Ln, London W3 6PU, UK"
604,160000.0,Property,"Songbird, Limehouse, E14",E14,1.0,51.5110598,-0.0366652,"Limehouse, London, UK"
605,160000.0,Flat,"Churchill Court, Ainsley Close, London, N9",N9,1.0,51.6319987,-0.0798065,"Churchill Court, Ainsley Cl, London N9 9XL, UK"
606,160000.0,Apartment,"Orchard Place,London,E14 0JU",E14,2.0,51.5093051,0.0054662,"Orchard Pl, London E14 0JU, UK"
607,160000.0,House,"Limehouse Basin Marina, Limehouse, E14",E14,1.0,51.5105301,-0.0364298,"The Harbourmasters Office, 46 Goodhart Pl, London E14 8EG, UK"
608,160000.0,Flat,"133A Eglinton Road, Woolwich, London, SE18 3SJ",SE18,2.0,51.48027399999999,0.066051,"133A Eglinton Rd, London SE18 3SJ, UK"
609,160000.0,Apartment,"Plough Lane,London,SW17 0BL",SW17,3.0,51.43153969999999,-0.1866871,"Plough Ln, London SW17 0NR, UK"
610,160000.0,House,"Limehouse Basin, Limehouse E14",E14,1.0,51.51138817288783,-0.0362989306604474,"Limehouse Basin, London E14, UK"
611,160000.0,Flat,"Brownell Place, London, W7",W7,1.0,51.5069856,-0.3357786,"Brownell Pl, London W7, UK"
612,160000.0,Flat,"16 Vernham Road, London, SE18 3EZ",SE18,1.0,51.4803546,0.0743802,"16 Vernham Rd, London SE18, UK"
613,160000.0,Studio flat,"GREENWAY CLOSE, FRIERN BARNET, N11",N11,0.0,51.6093454,-0.1464199,"Greenway Cl, London N11, UK"
614,160000.0,Flat,"245 Mersham Road, Thornton Heath, Surrey CR7 8NW",CR7,2.0,51.4066446,-0.0907825,"245 Mersham Rd, Thornton Heath CR7, UK"
615,160000.0,House,"Boardwalk Place, London, E14",E14,2.0,51.5059413,-0.0102067,"Boardwalk Pl, London E14, UK"
616,160000.0,Studio apartment,"Juniper Drive, London, SW18",SW18,0.0,51.4640344,-0.1847941,"Juniper Dr, London SW18, UK"
617,160000.0,Flat,"Regan Lodge, Enfield, London, N21",N21,2.0,51.64553739999999,-0.1137713,"Regan Lodge, 84 Pennington Dr, London N21 1TP, UK"
618,124375.0,Apartment,"The Silk District,Georgette Apartments, London, E1 2JA",E1,1.0,51.518643,-0.0573092999999999,"132 Cavell St, London E1 2JA, UK"
619,160000.0,Apartment,"Seagull Lane, London, E16",E16,1.0,51.5091099,0.0212331,"Seagull Ln, London E16, UK"
620,160000.0,House,"Goodhart Place, London, E14",E14,1.0,51.5101908,-0.0374569,"Goodhart Pl, London E14, UK"
621,159250.0,Apartment,"Avery Court, 45 Capitol Way, Colindale, London, NW9",NW9,2.0,51.5943232,-0.2638264,"40-45 Capitol Way, London NW9 0EQ, UK"
622,159250.0,Apartment,Agnes George WalkLondonE16 2EE,E16,3.0,51.5026509,0.0353285,"Agnes George Walk, London E16, UK"
623,159000.0,House,"Boardwalk Place, London, E14",E14,1.0,51.5059413,-0.0102067,"Boardwalk Pl, London E14, UK"
624,159000.0,Flat,"Cunningham Avenue, London, E16",E16,2.0,51.5011952,0.0288118,"Cunningham Ave, London E16, UK"
625,159000.0,Flat,"Gladstone House, Greenwich, London, SE10",SE10,2.0,51.5289134,0.0418908,"Gladstone House, 75 Creighton Ave, London E6 3DT, UK"
626,158750.0,Apartment,"Plough Lane,London,SW17 0BL",SW17,3.0,51.43153969999999,-0.1866871,"Plough Ln, London SW17 0NR, UK"
627,158750.0,Apartment,"London,SE3 9FW",SE3,3.0,51.46186780000001,0.0270228,"London SE3 9FW, UK"
628,158750.0,Apartment,"Heron Quarter, Coster Avenue,London,N4 2WL",N4,2.0,51.570108,-0.0930537999999999,"Coster Ave, Woodberry Down, London N4 2WL, UK"
629,157500.0,Apartment,"Osiers Road, Riverside Quarter, Wandsworth, London, SW18",SW18,2.0,51.4629835,-0.2006198,"Wandsworth Riverside Quarter Pier, London SW15, UK"
630,157500.0,Apartment,"Heron Quarter, Coster Avenue,London,N4 2WL",N4,2.0,51.570108,-0.0930537999999999,"Coster Ave, Woodberry Down, London N4 2WL, UK"
631,157500.0,Flat,"Orchard Court, 35 Bell Green, London, SE26",SE26,2.0,51.4297815,-0.0369821,"35 Bell Grn, London SE26 4EN, UK"
632,157500.0,Apartment,"Flat 12 Spinney Court, Earlham Grove, London, E7",E7,3.0,51.5484539,0.0230617,"Earlham Grove, London E7, UK"
633,156275.0,Apartment,"Dace Road, London, E3",E3,3.0,51.5377632,-0.0232452,"Dace Rd, Fish Island, London E3, UK"
634,156250.0,Apartment,"Orchard Place,London,E14 0JU",E14,2.0,51.5093051,0.0054662,"Orchard Pl, London E14 0JU, UK"
635,156250.0,Flat,"Eastfields Avenue,WandsworthLondon,SW18 1YR",SW18,2.0,51.4622472,-0.1977899,"Eastfields Ave, London SW18, UK"
636,156250.0,Flat,"Eastfields Avenue,WandsworthLondon,SW18 1YR",SW18,2.0,51.4622472,-0.1977899,"Eastfields Ave, London SW18, UK"
637,156250.0,Apartment,"Heron Quarter, Coster Avenue,London,N4 2WL",N4,2.0,51.570108,-0.0930537999999999,"Coster Ave, Woodberry Down, London N4 2WL, UK"
638,156250.0,Flat,"Eastfields Avenue,WandsworthLondon,SW18 1YR",SW18,2.0,51.4622472,-0.1977899,"Eastfields Ave, London SW18, UK"
639,156250.0,Apartment,"Heron Quarter, Coster Avenue,London,N4 2WL",N4,2.0,51.570108,-0.0930537999999999,"Coster Ave, Woodberry Down, London N4 2WL, UK"
640,155625.0,Apartment,"Heron Quarter, Coster Avenue,London,N4 2WL",N4,2.0,51.570108,-0.0930537999999999,"Coster Ave, Woodberry Down, London N4 2WL, UK"
641,155000.0,Flat,"Fairbourne Road, Clapham, Greater London, SW4",SW4,1.0,51.4509952,-0.1317944,"Fairbourne Rd, London SW4, UK"
642,155000.0,Flat,"Creekside, London, SE8",SE8,3.0,51.4786572,-0.0208579,"Creekside, London SE8, UK"
643,155000.0,Apartment,"Heron Quarter, Coster Avenue,London,N4 2WL",N4,2.0,51.570108,-0.0930537999999999,"Coster Ave, Woodberry Down, London N4 2WL, UK"
644,155000.0,Studio flat,"Holloway Road, London, London, N7 8JG",N7,0.0,51.5494452,-0.1080872,"Holloway Rd, London, UK"
645,154000.0,Flat,"Marylebone Road, London, NW1",NW1,1.0,51.5224304,-0.1554705,"Marylebone Rd, London NW1, UK"
646,153000.0,Apartment,"Beulah Hill, London, SE19",SE19,1.0,51.4164722,-0.0968884,"Beulah Hill, London SE19, UK"
647,153000.0,Apartment,"Dockley Road, Bermondsey, SE16 3SN",SE16,1.0,51.4955888,-0.0687414,"Dockley Rd, London SE16 3SN, UK"
648,151250.0,Apartment,"Loughborough Park, London, SW9",SW9,3.0,51.4616099,-0.1045558,"Loughborough Park, London SW9, UK"
649,150625.0,Apartment,"60 Neasden Lane,London,NW10 2WE",NW10,3.0,51.5556595,-0.2497198,"60 Neasden Ln, London NW10, UK"
650,150500.0,Property,"Friern Barnet Lane, London, N20",N20,1.0,51.62254,-0.1660095,"Friern Barnet Ln, London N20, UK"
651,150500.0,Property,"Friern Barnet Lane, London, N20",N20,1.0,51.62254,-0.1660095,"Friern Barnet Ln, London N20, UK"
652,150500.0,Property,"Friern Barnet Lane, London, N20",N20,1.0,51.62254,-0.1660095,"Friern Barnet Ln, London N20, UK"
653,150000.0,Apartment,"High Street, South Norwood, London, SE25",SE25,2.0,51.3994905,-0.0746423,"High St, London SE25, UK"
654,150000.0,Flat,"Anerley Road, ., London, ,, SE20 8AJ",SE20,1.0,51.4121078,-0.0670089,"Anerley Rd, London, UK"
655,150000.0,Studio flat,"Ainsley Close, Edmonton, N9",N9,0.0,51.6316919,-0.0793245,"Ainsley Cl, London N9, UK"
656,150000.0,Flat,"Buckle Street (30% share), Aldgate, London, E1",E1,1.0,51.5145099,-0.0704057,"30 Buckle St, London E1, UK"
657,150000.0,House,"Limehouse Basin Marina, London, E14",E14,1.0,51.51138817288783,-0.0362989306604474,"Limehouse Basin, London E14, UK"
658,150000.0,Studio flat,"Charlemont Road, London, E6",E6,0.0,51.5243506,0.0607102,"Charlemont Rd, London E6, UK"
659,150000.0,Property,"Bramhope Lane, London, SE7",SE7,1.0,51.4810432,0.0291151,"Bramhope Ln, London SE7, UK"
660,150000.0,Apartment,"Silvertown Way,London,E16",E16,3.0,51.5090247,0.0134637,"Silvertown Way, London E16, UK"
661,150000.0,Apartment,"60 Neasden Lane,London,NW10 2WE",NW10,3.0,51.5556595,-0.2497198,"60 Neasden Ln, London NW10, UK"
662,150000.0,Flat,Culverley Road London SE6,SE6,1.0,51.4423924,-0.015685,"Culverley Rd, London SE6, UK"
663,150000.0,Flat," High Street, London, ,, SE25 6EB",SE25,2.0,51.399201,-0.0750629,"High St, London SE25, UK"
664,150000.0,House,"Chelsea Harbour, London, SW10",SW10,2.0,51.476111,-0.1826413,"Chelsea Harbour, London, UK"
665,150000.0,Flat,"London Road, London, SW16",SW16,1.0,51.4057767,-0.1203935,"London Rd, London SW16, UK"
666,150000.0,Flat,"Stannard Court, Catford, SE6 2LE",SE6,1.0,51.4437131,-0.0192451,"Stannard Court, Culverley Rd, London SE6 2LE, UK"
667,150000.0,Flat,"Burford Wharf Apartments, 3 Cam Road, Stratford, London, E15",E15,1.0,51.5369087,-0.0012583,"Burford Wharf Apts, 3 Cam Rd, London E15 2SQ, UK"
668,150000.0,House,"Goodhart Place, London, E14",E14,1.0,51.5101908,-0.0374569,"Goodhart Pl, London E14, UK"
669,300000.0,Apartment,"Brine House, St Stephens Road, Bow E3",E3,1.0,51.5329306,-0.0337803,"Brine House, St Stephen's Rd, Bow, London E3 5PG, UK"
670,300000.0,Apartment,"Rosse Gardens, Desvignes Drive, London, SE13",SE13,1.0,51.4484733,-0.0026056,"Rosse Gardens, Desvignes Dr, London SE13 6PD, UK"
671,300000.0,Flat,"Croxted Road, West Dulwich, London, SE21",SE21,1.0,51.4377073,-0.091079,"Croxted Rd, London, UK"
672,300000.0,Studio flat,"43a Goldhawk Road, London, W12",W12,0.0,51.5025115,-0.2254547,"Market Studios, 43A Goldhawk Rd, London W12 8QP, UK"
673,300000.0,Flat,"Jeffreys Road, London, SW4",SW4,1.0,51.4710873,-0.1277697,"Jeffreys Rd, London SW4, UK"
674,300000.0,Flat,"17 Culloden Close, London, SE16",SE16,1.0,51.4855518,-0.0653613,"Archers Lodge, 17 Culloden Cl, London SE16 3JH, UK"
675,300000.0,Studio flat,"Park Hill, Ealing Broadway, London, W5",W5,0.0,51.5216217,-0.3010211,"Park Hill, London W5, UK"
676,300000.0,Flat,"Elmington Estate, London, SE5",SE5,1.0,51.4785584,-0.0927824999999999,"Elmington Estate, London SE5 7HT, UK"
677,300000.0,Flat,"St Catherines Close, London, SW20",SW20,1.0,51.3964829,-0.228381,"St Catherine's Cl, London SW20, UK"
678,300000.0,Flat,"Sherwood Gardens, London, SE16",SE16,1.0,51.4868876,-0.0640419,"Sherwood Gardens, London SE16, UK"
679,300000.0,Flat,"Worcester Close, London, SE20",SE20,1.0,51.4122688,-0.071836,"Worcester Cl, London SE20, UK"
680,300000.0,Flat,"Brownhill Court, 1b Brownhill Road, Catford, London, SE6",SE6,2.0,51.446195,-0.0184466,"1 Brownhill Rd, London SE6 2HG, UK"
681,300000.0,Flat,"Havil Street, Camberwell, SE5",SE5,1.0,51.4759177,-0.0834641,"Havil St, London SE5, UK"
682,300000.0,Flat,"Sark Tower, Erebus Drive SE28.",SE28,1.0,51.4965279,0.0792897,"Erebus Dr, London SE28, UK"
683,300000.0,Detached house,"Eastdown Park, London, SE13",SE13,1.0,51.4581888,-0.0041982,"Eastdown Park, London SE13, UK"
684,300000.0,Apartment,"Caroline Close, Streatham, London, SW16",SW16,1.0,51.4323939,-0.1175191,"Caroline Cl, London SW16, UK"
685,300000.0,Flat,"Lettsom Street, London, SE5",SE5,1.0,51.4705501,-0.0853137,"Lettsom St, London SE5, UK"
686,295000.0,Flat,"Derby Court, Derby Road, London, E18",E18,1.0,51.5996979,0.0144795,"Derby Court, Derby Rd, London E18 2PT, UK"
687,300000.0,Apartment,"Cara House, Capitol Way, NW9",NW9,1.0,51.5943736,-0.2619519,"48 Capitol Way, London NW9 0AZ, UK"
688,300000.0,Flat,"Caistor Park Road, Stratford, E15",E15,2.0,51.5350593,0.0151179,"Caistor Park Rd, London E15, UK"
689,300000.0,Studio apartment,"Dod Street, London, E14",E14,0.0,51.5141507,-0.0259249,"Dod St, London E14, UK"
690,300000.0,Flat,"Guildiford Road, Stockwell, London, SW8",SW8,2.0,51.4762839,-0.1249979,"Guildford Rd, London SW8, UK"
691,300000.0,Flat,"Cannon Street Road, Shadwell E1",E1,1.0,51.5110513,-0.0609825,"Cannon St Rd, London E1, UK"
692,300000.0,Flat,Brownhill Road Catford SE6,SE6,2.0,51.445098,-0.0102798,"Brownhill Rd, London SE6, UK"
693,300000.0,Flat,"Flowers Close, London, NW2 7FG",NW2,1.0,51.5620707,-0.2397126,"Flowers Cl, London NW2 7FG, UK"
694,300000.0,Studio flat,"East Dulwich Estate, London, SE22",SE22,0.0,51.464309,-0.0815043999999999,"03 Ledbury House Pytchley Road Estate, Dulwich Estate, London SE22 8AN, UK"
695,300000.0,Flat,"112 Naylor Road, Peckham Rye, SE15",SE15,1.0,51.4767958,-0.0611895,"Havelock Court, 112 Naylor Rd, London SE15 1QW, UK"
696,300000.0,Flat,"Jubilee Place, Chelsea, London, SW3",SW3,1.0,51.4897195,-0.1661879,"Jubilee Pl, London SW3, UK"
697,300000.0,Flat,"Mare Street, Hackney, London, E8",E8,1.0,51.5418925,-0.0552366,"Mare St, London E8, UK"
698,300000.0,Apartment,"100 Kingsway, North Finchley, N12",N12,1.0,51.6126072,-0.1772725,"100 Kingsway, London N12 0EQ, UK"
699,300000.0,Apartment,"Blackdown Close, East Finchley, N2",N2,1.0,51.5959664,-0.1757961,"Blackdown Cl, London N2, UK"
700,300000.0,Flat,Beulah Hill London SE19,SE19,1.0,51.4164722,-0.0968884,"Beulah Hill, London SE19, UK"
701,300000.0,Apartment,"Dollis Road, Finchley, London, N3",N3,1.0,51.604741,-0.2022175,"Dollis Rd, London N3, UK"
702,300000.0,Studio apartment,"Pitsea Street, London, E1",E1,0.0,51.5128955,-0.0443119,"Pitsea St, London E1, UK"
703,300000.0,Studio flat,"Carlton Drive, London, SW15",SW15,0.0,51.4572565,-0.2151812,"Carlton Dr, London SW15, UK"
704,300000.0,Flat,"Central Way, Park Royal, London, NW10",NW10,1.0,51.5322231,-0.267471,"Central Way, London NW10, UK"
705,300000.0,Flat,"High Road, Willesden Green, London, NW10",NW10,1.0,51.5481946,-0.2374743,"High Rd, London NW10, UK"
706,300000.0,Flat,"Radley Court, Selhurst Road, South Norwood, SE25",SE25,2.0,51.39447630000001,-0.0851629,"Radley Court, 144 Selhurst Rd, London SE25 6LP, UK"
707,300000.0,Flat,"Deals Gateway, London, SE13",SE13,1.0,51.4726394,-0.020867,"Deals Gateway, London, UK"
708,300000.0,Apartment,"Strafford Street, Docklands, London, E14",E14,1.0,51.4992592,-0.0253788,"Strafford St, London E14, UK"
709,300000.0,Flat,"Hamlets Way, Mile End E3",E3,2.0,51.5233854,-0.0324433,"Hamlets Way, London E3, UK"
710,300000.0,Apartment,"Mayfield Road, Shepherds Bush, London, W12",W12,1.0,51.5032318,-0.2506718,"Mayfield Rd, London W3, UK"
711,300000.0,Apartment,"Brixton Hill, London, SW2",SW2,1.0,51.4533088,-0.1205905,"Brixton Hill, London SW2, UK"
712,300000.0,Flat,"East Point, Church Road, Leyton, London, E10",E10,1.0,51.5660265,-0.0208344,"Church Rd, London E10, UK"
713,300000.0,Apartment,"Victoria Road, Acton, W3",W3,1.0,51.5244028,-0.2569485,"Victoria Rd, London W3, UK"
714,300000.0,Apartment,"The Oxygen Apartments, Royal Victoria Dock, E16",E16,1.0,51.5077767,0.0300599,"Royal Victoria Dock, London E16 1XL, UK"
715,300000.0,Apartment,"Beech Court, Wimbledon Beaumont, 35, Arterberry Road, Wimbledon, SW20",SW20,1.0,51.4161516,-0.2268792,"35 Arterberry Rd, London SW20 8AG, UK"
716,300000.0,Flat,"Dunstan Grove, Penge, SE20",SE20,1.0,51.4140678,-0.0629656,"Dunstan Grove, London SE20, UK"
717,300000.0,Flat,"Woolstone Road, Forest Hill, SE23",SE23,1.0,51.437322,-0.0386496,"Woolstone Rd, London SE23, UK"
718,300000.0,Studio flat,"Embassy House, West End Lane, London, NW6",NW6,0.0,51.5444654,-0.1922535,"W End Ln, London NW6 2NA, UK"
719,300000.0,Flat,"Crosslet Vale, Greenwich, London, SE10 8DL",SE10,1.0,51.4728123,-0.0187839,"Crosslet Vale, London SE10 8DL, UK"
720,300000.0,Apartment,"Randisbourne Gardens, Bromley Road, LONDON, SE6",SE6,3.0,51.4326179,-0.0178435,"Randisbourne Gardens, 13 Bromley Rd, London SE6 3BS, UK"
721,300000.0,Apartment,"7a Odeon Parade, Well Hall Road, Eltham, SE9",SE9,1.0,51.4599099,0.0491393,"Odeon Parade, 99 Well Hall Rd, London SE9, UK"
722,300000.0,Flat,"Neasden Lane, London, NW10",NW10,1.0,51.555213,-0.2501193,"Neasden Ln, London NW10, UK"
723,300000.0,Studio flat,"Wandsworth Bridge Road, Fulham, London, SW6",SW6,0.0,51.4702035,-0.1910581,"Wandsworth Bridge Rd, London SW6, UK"
724,300000.0,Flat,"Arlington House,  Evelyn Street, London, SE8 5QT",SE8,2.0,51.4831969,-0.0297697,"Evelyn St, London SE8 5QT, UK"
725,300000.0,Apartment,"Dempsey Court, Adenmore Road, London, SE6 4BS",SE6,1.0,51.4472082,-0.0247373,"London SE6 4BS, UK"
726,300000.0,Property,"Bedford Road, East Finchley N2",N2,2.0,51.5925751,-0.1635949,"Bedford Rd, London N2, UK"
727,300000.0,Studio flat,"Kersfield Road, SW15",SW15,0.0,51.4535949,-0.2181259,"Kersfield Rd, London SW15, UK"
728,300000.0,Flat,"Westcombe Park Road, Blackheath, London, SE3",SE3,1.0,51.4787351,0.011697,"Westcombe Park Rd, London SE3, UK"
729,300000.0,Flat,"149 Pepys Road, London, SE14",SE14,1.0,51.466483,-0.0434368,"149 Pepys Rd, London SE14 5SG, UK"
730,300000.0,Flat,"Taunton Drive, East Finchley N2",N2,1.0,51.5960569,-0.1755461,"Taunton Dr, London N2, UK"
731,300000.0,Flat,Ross Road London SE25,SE25,2.0,51.4028616,-0.0880741,"Ross Rd, London SE25, UK"
732,300000.0,Apartment,"95 Bromley High Street, London, E3",E3,1.0,51.52851889999999,-0.0140758,"95 Bromley High St., London E3 3EN, UK"
733,300000.0,Flat,"Wellington Way, London E3",E3,2.0,51.5254114,-0.0247974,"Wellington Way, London E3, UK"
734,300000.0,Flat,"Barking Road, Plaistow, London, E13 8HL",E13,2.0,51.521196,0.020185,"Barking Rd, London, UK"
735,300000.0,Flat,"Torrington Park, North Finchley, London, N12",N12,1.0,51.6171549,-0.1683528,"Torrington Park, London N12, UK"
736,300000.0,Flat,"Wellington Court, Battersea, London, SW11",SW11,1.0,51.4591582,-0.1721345,"Wellington Court, 53 Chivalry Rd, London SW11 1HX, UK"
737,300000.0,Flat,"Station Road, London, N3",N3,1.0,51.5991676,-0.1902348,"Station Rd, London N3, UK"
738,300000.0,Apartment,"Mayfield Road, London, W12",W12,1.0,51.5032318,-0.2506718,"Mayfield Rd, London W3, UK"
739,300000.0,Flat,"Flat  -  Kilburn High Road, London, NW6",NW6,1.0,51.5409107,-0.1967427,"Kilburn High Rd, London NW6, UK"
740,300000.0,Studio apartment,"Ivy Point, 5 Hannaford Walk, Bow, London, E3",E3,0.0,51.52419099999999,-0.014565,"5 Hannaford Walk, London E3 3TF, UK"
741,300000.0,Flat,"Homerton Road, London E9",E9,1.0,51.5516961,-0.027919,"Homerton Rd, London E9, UK"
742,300000.0,Flat,"Jedburgh Road , Plaistow, London, E13 9LX",E13,1.0,51.5263418,0.0312691,"Jedburgh Rd, London E13, UK"
743,300000.0,Property,"Sandford Road, East Ham, London, E6",E6,3.0,51.5249301,0.0533204,"Sandford Rd, London E6, UK"
744,300000.0,Apartment,"Leven Road, London, E14",E14,1.0,51.515426,-0.0050542,"Leven Rd, Aberfeldy Village, London E14, UK"
745,300000.0,Flat,"Durnsford Road, London, SW19",SW19,1.0,51.4337659,-0.1954344,"Durnsford Rd, London SW19, UK"
746,300000.0,Flat,"Caledonian Road, Islington, N1",N1,1.0,51.5415541,-0.1171403,"Caledonian Rd, London N1, UK"
747,300000.0,Flat,"Malyons Road, London, SE13",SE13,2.0,51.4540738,-0.0213342,"Malyons Rd, London SE13, UK"
748,300000.0,Flat,"Apartment 14, The Drakes, 390 Evelyn Street, London, SE8",SE8,1.0,51.4817581,-0.0280706,"390 Evelyn St, London SE8 5BU, UK"
749,300000.0,Apartment,"Cherry Blossom Close, London, N13",N13,2.0,51.6149598,-0.0965019,"Cherry Blossom Cl, London N13, UK"
750,300000.0,Apartment,"Swallow Close, London, SE14",SE14,1.0,51.4730264,-0.0500895,"Swallow Cl, London SE14, UK"
751,300000.0,Flat,"Elm Tree Court, Charlton, London, SE7",SE7,3.0,51.4791498,0.0311483,"Elm Tree Ct, London SE7 7DP, UK"
752,300000.0,Flat,"Knox Road, London, E7",E7,1.0,51.5438346,0.0191738,"Knox Rd, London E7, UK"
753,300000.0,Flat,"Priory Road, East Ham, London, E6 1PU",E6,2.0,51.5325001,0.0401781,"Priory Rd, London E6, UK"
754,300000.0,Maisonette,"Myddleton Road, London, N22",N22,1.0,51.6064257,-0.1168338,"Myddleton Rd, London N22, UK"
755,290000.0,Maisonette,"Uphill Drive, London, NW9",NW9,2.0,51.5844722,-0.2643671,"Uphill Dr, Edgware, London NW9, UK"
756,300000.0,Flat,"Bramlands Close, Battersea, London, SW11",SW11,2.0,51.46587,-0.1702737,"Bramlands Cl, London SW11, UK"
757,300000.0,Flat,"Arklow Road, London, SE14",SE14,1.0,51.4807465,-0.0342046,"Arklow Rd, London SE14, UK"
758,300000.0,Apartment,"21 Edwin Street, London, E16",E16,1.0,51.5165832,0.0186017,"21 Edwin St, London E16 1QA, UK"
759,300000.0,Studio flat,"East Dulwich Road, East Dulwich, London, SE22",SE22,0.0,51.4615664,-0.0706352,"E Dulwich Rd, London, UK"
760,300000.0,Studio flat,"98 Merton High Street, Wimbledon SW19",SW19,0.0,51.4161345,-0.185837,"98 Merton High St, London SW19 1BD, UK"
761,300000.0,Studio flat,"Trinity Road, Carmicheal Mews, London, SW18",SW18,0.0,51.4495941,-0.1746368,"Carmichael Mews, London SW18, UK"
762,300000.0,Flat,"Chalfont Road,London,SE25 4FB",SE25,2.0,51.4015759,-0.0759565,"Chalfont Rd, London SE25 4FB, UK"
763,300000.0,Flat,"Latimer Road, London, E7",E7,1.0,51.5525993,0.0312873,"Latimer Rd, London E7, UK"
764,300000.0,Apartment,"Broxholm Road, West Norwood, SE27",SE27,1.0,51.4337741,-0.1135863,"Broxholm Rd, Norwood, London SE27, UK"
765,300000.0,Apartment,"Peckham Grove, Peckham, SE15",SE15,1.0,51.4786441,-0.0813851,"Peckham Grove, London SE5, UK"
766,300000.0,Flat,"Amblecote Road, London, SE12",SE12,2.0,51.4305449,0.0242,"Amblecote Rd, London SE12, UK"
767,300000.0,Flat,"Canterbury Grove, West Norwood, London, SE27",SE27,1.0,51.432907,-0.1097296,"Canterbury Grove, Norwood, London SE27, UK"
768,300000.0,Apartment,"Clemence Street, Canary Wharf, E14",E14,1.0,51.5160676,-0.0316419,"Clemence St, London E14, UK"
769,300000.0,Flat,"Hind Grove, London, E14",E14,1.0,51.513282,-0.0234609,"Hind Grove, London E14, UK"
770,295000.0,Apartment,"Armstrong Road, London, NW10",NW10,1.0,51.5437395,-0.2546124,"Armstrong Rd, London NW10, UK"
771,300000.0,Flat,"Beaufort Park, Colindale, NW9",NW9,1.0,51.5960492,-0.2417235,"3 Boulevard Dr, London NW9 5JH, UK"
772,300000.0,Flat,"Brownhill Road, London, SE6",SE6,2.0,51.4450808,-0.0074361,"Brownhill Rd, London SE6, UK"
773,300000.0,Studio flat,"Casson Apartments, 43 Upper North Street, Poplar, E14",E14,0.0,51.512694,-0.0202852,"Upper North St, London E14 6FY, UK"
774,300000.0,Flat,"Wellfield Road, London, SW16",SW16,1.0,51.428701,-0.1238491,"Wellfield Rd, London SW16, UK"
775,300000.0,Flat,"Brabazon Street, Limehouse, London, E14",E14,2.0,51.5160833,-0.018425,"Brabazon St, London E14, UK"
776,300000.0,Flat,"Osbourne Terrace, Blackheath, London, SE3",SE3,1.0,51.4573638,0.0113118,"Osborn Terrace, Blackheath, London SE3, UK"
777,300000.0,Flat,"Drewstead Road, Streatham Hill, London, SW16",SW16,1.0,51.4386159,-0.1313398,"Drewstead Rd, London SW16, UK"
778,300000.0,Apartment,"Abbey Drive, London, SW17",SW17,1.0,51.4261729,-0.1558286,"Abbey Drive, London SW17, UK"
779,300000.0,Flat,"Menlo Gardens, Crystal Palace, London, SE19",SE19,2.0,51.4152168,-0.0942374,"Menlo Gardens, London SE19 3DT, UK"
780,300000.0,Flat,"Kimberley Gardens, Harringay, London, N4",N4,1.0,51.5809514,-0.0971409,"Kimberley Gardens, Harringay Ladder, London N4, UK"
781,300000.0,Flat,"Wharfside Point South, 4 Prestons Road, London, E14",E14,1.0,51.5081329,-0.0090954,"Wharfside Point South, 4 Preston's Rd, London E14 9EL, UK"
782,300000.0,Apartment,"Streatham High Road, Norbury, London, SW16",SW16,2.0,51.4145304,-0.1241009,"Streatham High Rd, Norbury, London SW16, UK"
783,300000.0,Flat,"Longfield Estate, London, SE1",SE1,1.0,51.4926715,-0.074252,"Longfield Estate, London SE1, UK"
784,300000.0,Property,"114 Westcombe Park Road, London, SE3",SE3,1.0,51.47850039999999,0.0177402,"Tudor Grange, 114 Westcombe Park Rd, London SE3 7RZ, UK"
785,300000.0,Apartment,"Fortis Green, East Finchley, London, N2",N2,1.0,51.5901203,-0.1600646,"Fortis Green, London, UK"
786,300000.0,Flat,"Gazelle House, 8 Manbey Park Road, London, E15",E15,1.0,51.5456221,0.0054116,"Gazelle House, 8 Manbey Park Rd, London E15 1EQ, UK"
787,300000.0,Flat,"Saltwell Street, Tower Hamlets, London, E14",E14,1.0,51.5100806,-0.0210976,"Saltwell St, London E14, UK"
788,300000.0,Flat,"Selhurst Road, Selhurst, London, SE25",SE25,1.0,51.3956364,-0.0843839,"Selhurst Rd, London, UK"
789,300000.0,Apartment,"Wolsey Mews, Kentish Town, London, NW5",NW5,1.0,51.5488023,-0.1405253,"Wolsey Mews, London NW5, UK"
790,277500.0,Apartment,"St Julians Farm Road, West Norwood, London, SE27",SE27,1.0,51.4291807,-0.1095134,"St Julian's Farm Rd, Norwood, London SE27, UK"
791,300000.0,Apartment,"Mulberry Court, London, N2",N2,2.0,51.5925403,-0.1661926,"Mulberry Court, Bedford Rd, London N2 9DZ, UK"
792,300000.0,Flat,"Queensdale Crescent, London, W11",W11,1.0,51.5070394,-0.217509,"Queensdale Cres, London W11, UK"
793,300000.0,Flat,"Tooting High Street, London SW17",SW17,2.0,51.4267396,-0.169365,"Tooting High St, London SW17, UK"
794,300000.0,Flat,"Holdsworth House, Brixton, SW2",SW2,1.0,51.4494647,-0.1135713,"Holdsworth House, London SW2 2EX, UK"
795,300000.0,Studio flat,"Carlton Drive, London, SW15",SW15,0.0,51.4572565,-0.2151812,"Carlton Dr, London SW15, UK"
796,300000.0,Flat,"East Dulwich Road, Dulwich, SE22",SE22,1.0,51.4616576,-0.0702851,"E Dulwich Rd, London SE22, UK"
797,300000.0,Flat,"Green Lanes, London, N21",N21,1.0,51.6298245,-0.0971887,"Green Lanes, London N21, UK"
798,300000.0,Flat,"Ashmead House, Homerton Road, Hackney, E9",E9,1.0,51.5472127,-0.0337966,"Ashmead House, 4 Hillyfield Cl, London E9 5RD, UK"
799,300000.0,Apartment,"Johnson Court, Kidbrooke, SE9",SE9,1.0,51.4654183,0.0091487,"Kidbrooke, Blackheath, London SE3, UK"
800,300000.0,Flat,"High Road, London, N2",N2,1.0,51.5954687,-0.1701594,"High Rd, London N2, UK"
